{
  "status": "SUCCESS",
  "response": {
    "locations": [
      {
        "addressExtra": null,
        "businessId": 1312729,
        "city": "Uetersen",
        "country": "DE",
        "googlePlaceId": "ChIJPUOt_x5-sUcRUZPHWFHL99Y",
        "id": 3180455,
        "identifier": "DE004117",
        "lat": 53.6926235,
        "lng": 9.6544977,
        "name": "ALDI Nord",
        "province": "Schleswig-Holstein",
        "streetAndNumber": "Reuterstraße 115",
        "zip": "25436"
      },
      {
        "addressExtra": null,
        "businessId": 1312729,
        "city": "Iserlohn",
        "country": "DE",
        "googlePlaceId": "ChIJq7-G8UY_uUcRZ2AFsIFiFh4",
        "id": 3180456,
        "identifier": "DE013013",
        "lat": 51.36524204,
        "lng": 7.62058969,
        "name": "ALDI Nord",
        "province": "Nordrhein-Westfalen",
        "streetAndNumber": "An Pater und Nonne 3A",
        "zip": "58642"
      },
      {
        "addressExtra": null,
        "businessId": 1312729,
        "city": "Hoyerswerda",
        "country": "DE",
        "googlePlaceId": "ChIJ4-5KSrdDCEcRMwSe4Tkuv0o",
        "id": 3180457,
        "identifier": "DE036120",
        "lat": 51.44023106,
        "lng": 14.24712554,
        "name": "ALDI Nord",
        "province": "Sachsen",
        "streetAndNumber": "Teschenstraße 1",
        "zip": "02977"
      },
      {
        "addressExtra": null,
        "businessId": 1312729,
        "city": "Philippsthal (Werra)",
        "country": "DE",
        "googlePlaceId": "ChIJyZMGFlRZo0cRQGusI7UmSbg",
        "id": 3180458,
        "identifier": "DE010069",
        "lat": 50.83857,
        "lng": 9.98963,
        "name": "ALDI Nord",
        "province": "Hessen",
        "streetAndNumber": "Ulsterstraße 6",
        "zip": "36269"
      },
      {
        "addressExtra": null,
        "businessId": 1312729,
        "city": "Lengerich",
        "country": "DE",
        "googlePlaceId": "ChIJPWNusqt4t0cRIGomBuKP2FU",
        "id": 3180459,
        "identifier": "DE025051",
        "lat": 52.55229378,
        "lng": 7.53242827,
        "name": "ALDI Nord",
        "province": "Niedersachsen",
        "streetAndNumber": "Luetemannskamp 4",
        "zip": "49838"
      },
      {
        "addressExtra": null,
        "businessId": 1312729,
        "city": "Lauta",
        "country": "DE",
        "googlePlaceId": "ChIJRbNhgKRACEcRYnMcEanVPeI",
        "id": 3180461,
        "identifier": "DE036117",
        "lat": 51.44118267,
        "lng": 14.10011008,
        "name": "ALDI Nord",
        "province": "Sachsen",
        "streetAndNumber": "Friedensstraße 8",
        "zip": "02991"
      },
      {
        "addressExtra": null,
        "businessId": 1312729,
        "city": "Münster",
        "country": "DE",
        "googlePlaceId": "ChIJQRWwUpG6uUcRmE18UiOALiI",
        "id": 3180462,
        "identifier": "DE032131",
        "lat": 51.97235481,
        "lng": 7.61116241,
        "name": "ALDI Nord",
        "province": "Nordrhein-Westfalen",
        "streetAndNumber": "Catharina-Müller-Straße 6",
        "zip": "48149"
      },
      {
        "addressExtra": null,
        "businessId": 1312729,
        "city": "Glückstadt",
        "country": "DE",
        "googlePlaceId": "ChIJgX8uWFbZs0cRf121jBxBLmA",
        "id": 3180463,
        "identifier": "DE004124",
        "lat": 53.79874666,
        "lng": 9.43491984,
        "name": "ALDI Nord",
        "province": "Schleswig-Holstein",
        "streetAndNumber": "Wiebeke-Kruse-Straße 5-7",
        "zip": "25348"
      },
      {
        "addressExtra": null,
        "businessId": 1312729,
        "city": "Lübeck",
        "country": "DE",
        "googlePlaceId": "ChIJz1Mkv7-KrUcR9aCg3zSxAsc",
        "id": 3180464,
        "identifier": "DE016137",
        "lat": 53.96303216,
        "lng": 10.86055289,
        "name": "ALDI Nord",
        "province": "Schleswig-Holstein",
        "streetAndNumber": "Nordmeerstraße 100",
        "zip": "23570"
      },
      {
        "addressExtra": null,
        "businessId": 1312729,
        "city": "Borgentreich",
        "country": "DE",
        "googlePlaceId": "ChIJrYfQsFUDu0cRqWEk5z0g9DA",
        "id": 3180465,
        "identifier": "DE005142",
        "lat": 51.575309,
        "lng": 9.242948,
        "name": "ALDI Nord",
        "province": "Nordrhein-Westfalen",
        "streetAndNumber": "Emmerkertorstraße 28",
        "zip": "34434"
      },
      {
        "addressExtra": null,
        "businessId": 1312729,
        "city": "Flensburg",
        "country": "DE",
        "googlePlaceId": "ChIJ85MEE19Cs0cR239wMtGOj30",
        "id": 3180466,
        "identifier": "DE004035",
        "lat": 54.79397548,
        "lng": 9.47003511,
        "name": "ALDI Nord",
        "province": "Schleswig-Holstein",
        "streetAndNumber": "Engelsbyer Str. 33",
        "zip": "24943"
      },
      {
        "addressExtra": null,
        "businessId": 1312729,
        "city": "Wendeburg",
        "country": "DE",
        "googlePlaceId": "ChIJCQNWm435r0cRVrnrweP0d5k",
        "id": 3180468,
        "identifier": "DE006068",
        "lat": 52.3204726,
        "lng": 10.3968216,
        "name": "ALDI Nord",
        "province": "Niedersachsen",
        "streetAndNumber": "Büssingstraße 1",
        "zip": "38176"
      },
      {
        "addressExtra": null,
        "businessId": 1312729,
        "city": "Everswinkel",
        "country": "DE",
        "googlePlaceId": "ChIJqe9CjCWYuUcRQF7iY7-UBZc",
        "id": 3180470,
        "identifier": "DE005062",
        "lat": 51.9240847,
        "lng": 7.8396003,
        "name": "ALDI Nord",
        "province": "Nordrhein-Westfalen",
        "streetAndNumber": "Alverskirchener Straße 24",
        "zip": "48351"
      },
      {
        "addressExtra": null,
        "businessId": 1312729,
        "city": "Cottbus",
        "country": "DE",
        "googlePlaceId": "ChIJ6wpx0VN0CEcREkqJjoK4Kb0",
        "id": 3180471,
        "identifier": "DE036122",
        "lat": 51.78147171,
        "lng": 14.31800658,
        "name": "ALDI Nord",
        "province": "Brandenburg",
        "streetAndNumber": "Limberger Straße 1",
        "zip": "03044"
      },
      {
        "addressExtra": null,
        "businessId": 1312729,
        "city": "Hesel",
        "country": "DE",
        "googlePlaceId": "ChIJzfBQQMBQtkcRFo2_WVBzUTc",
        "id": 3180472,
        "identifier": "DE015006",
        "lat": 53.299644,
        "lng": 7.5935906,
        "name": "ALDI Nord",
        "province": "Niedersachsen",
        "streetAndNumber": "Im Brink 8",
        "zip": "26835"
      },
      {
        "addressExtra": null,
        "businessId": 1312729,
        "city": "Berlin",
        "country": "DE",
        "googlePlaceId": "ChIJBwowZ4lRqEcRM7EkazmsRg0",
        "id": 3180473,
        "identifier": "DE024085",
        "lat": 52.5425014,
        "lng": 13.3781087,
        "name": "ALDI Nord",
        "province": "Berlin",
        "streetAndNumber": "Gerichtstraße 2-3",
        "zip": "13347"
      },
      {
        "addressExtra": null,
        "businessId": 1312729,
        "city": "Wenden",
        "country": "DE",
        "googlePlaceId": "ChIJzZvgPTGpvkcRnZ43kl0OkZQ",
        "id": 3180474,
        "identifier": "DE002039",
        "lat": 50.9705628,
        "lng": 7.8663597,
        "name": "ALDI Nord",
        "province": "Nordrhein-Westfalen",
        "streetAndNumber": "Hauptstraße 15-19",
        "zip": "57482"
      },
      {
        "addressExtra": null,
        "businessId": 1312729,
        "city": "Herne",
        "country": "DE",
        "googlePlaceId": "ChIJW1MWYarmuEcRVB5X1TTjtlQ",
        "id": 3180475,
        "identifier": "DE001062",
        "lat": 51.5490198,
        "lng": 7.1487976,
        "name": "ALDI Nord",
        "province": "Nordrhein-Westfalen",
        "streetAndNumber": "Resser Straße 29",
        "zip": "44653"
      },
      {
        "addressExtra": null,
        "businessId": 1312729,
        "city": "Uetersen",
        "country": "DE",
        "googlePlaceId": "ChIJs_AY_zB-sUcROYIgCp7a3xU",
        "id": 3180477,
        "identifier": "DE004009",
        "lat": 53.68076548,
        "lng": 9.67150619,
        "name": "ALDI Nord",
        "province": "Schleswig-Holstein",
        "streetAndNumber": "Gerberstraße 1",
        "zip": "25436"
      },
      {
        "addressExtra": null,
        "businessId": 1312729,
        "city": "Templin",
        "country": "DE",
        "googlePlaceId": "ChIJc9vy_RmdqUcRMgmGctvIxJA",
        "id": 3180478,
        "identifier": "DE024031",
        "lat": 53.1164552,
        "lng": 13.49963251,
        "name": "ALDI Nord",
        "province": "Brandenburg",
        "streetAndNumber": "Vietmannsdorfer Straße 2",
        "zip": "17268"
      },
      {
        "addressExtra": null,
        "businessId": 1312729,
        "city": "Marburg",
        "country": "DE",
        "googlePlaceId": "ChIJUzSz8X9ivEcR4LrSE-Fm5jg",
        "id": 3180479,
        "identifier": "DE005144",
        "lat": 50.80731506,
        "lng": 8.77707304,
        "name": "ALDI Nord",
        "province": "Hessen",
        "streetAndNumber": "Erlenring 9",
        "zip": "35037"
      },
      {
        "addressExtra": null,
        "businessId": 1312729,
        "city": "Frankenberg",
        "country": "DE",
        "googlePlaceId": "ChIJIbxfP0xCp0cRvI-AcexK4EE",
        "id": 3180480,
        "identifier": "DE036060",
        "lat": 50.91288093,
        "lng": 13.04399374,
        "name": "ALDI Nord",
        "province": "Sachsen",
        "streetAndNumber": "Badstraße 2a",
        "zip": "09669"
      },
      {
        "addressExtra": null,
        "businessId": 1312729,
        "city": "Marburg",
        "country": "DE",
        "googlePlaceId": "ChIJBeAx_LZivEcR6uhQVO2HdFo",
        "id": 3180481,
        "identifier": "DE005146",
        "lat": 50.8424782,
        "lng": 8.7656605,
        "name": "ALDI Nord",
        "province": "Hessen",
        "streetAndNumber": "Tom-Mutters-Straße 9",
        "zip": "35041"
      },
      {
        "addressExtra": null,
        "businessId": 1312729,
        "city": "Flensburg",
        "country": "DE",
        "googlePlaceId": "ChIJZz8o8aVCs0cRqnD-8O1r3hE",
        "id": 3180482,
        "identifier": "DE004041",
        "lat": 54.77897993,
        "lng": 9.4154985,
        "name": "ALDI Nord",
        "province": "Schleswig-Holstein",
        "streetAndNumber": "Friesische Str. 156",
        "zip": "24937"
      },
      {
        "addressExtra": null,
        "businessId": 1312729,
        "city": "Lensahn",
        "country": "DE",
        "googlePlaceId": "ChIJ5c3FDzl_skcRr-pg5EuUMFg",
        "id": 3180483,
        "identifier": "DE004148",
        "lat": 54.21858624,
        "lng": 10.89853895,
        "name": "ALDI Nord",
        "province": "Schleswig-Holstein",
        "streetAndNumber": "Dieselstraße 4",
        "zip": "23738"
      },
      {
        "addressExtra": null,
        "businessId": 1312729,
        "city": "Berlin",
        "country": "DE",
        "googlePlaceId": "ChIJtWPKosJYqEcRtyjah9lzsoY",
        "id": 3180484,
        "identifier": "DE020016",
        "lat": 52.4187553,
        "lng": 13.1574867,
        "name": "ALDI Nord",
        "province": "Berlin",
        "streetAndNumber": "Königstraße 56-57",
        "zip": "14109"
      },
      {
        "addressExtra": null,
        "businessId": 1312729,
        "city": "Bochum",
        "country": "DE",
        "googlePlaceId": "ChIJ17DHYc7guEcR1J1CPK28L4U",
        "id": 3180485,
        "identifier": "DE032088",
        "lat": 51.4955237,
        "lng": 7.1458251,
        "name": "ALDI Nord",
        "province": "Nordrhein-Westfalen",
        "streetAndNumber": "Günnigfelder Straße 56-58",
        "zip": "44866"
      },
      {
        "addressExtra": null,
        "businessId": 1312729,
        "city": "Berlin",
        "country": "DE",
        "googlePlaceId": "ChIJQXWsvzhWqEcR3Gga0uzwYOs",
        "id": 3180486,
        "identifier": "DE020043",
        "lat": 52.5395818,
        "lng": 13.197133,
        "name": "ALDI Nord",
        "province": "Berlin",
        "streetAndNumber": "Galenstraße 35",
        "zip": "13597"
      },
      {
        "addressExtra": null,
        "businessId": 1312729,
        "city": "Mittenaar",
        "country": "DE",
        "googlePlaceId": "ChIJqTxLhe9BvEcRdyCSjrI9nZs",
        "id": 3180487,
        "identifier": "DE002089",
        "lat": 50.6981,
        "lng": 8.4063034,
        "name": "ALDI Nord",
        "province": "Hessen",
        "streetAndNumber": "An der B 255 3",
        "zip": "35756"
      },
      {
        "addressExtra": null,
        "businessId": 1312729,
        "city": "Hamburg",
        "country": "DE",
        "googlePlaceId": "ChIJlVbr_ySOsUcRKVx2tvSKcZ8",
        "id": 3180488,
        "identifier": "DE003031",
        "lat": 53.5006612,
        "lng": 9.9999308,
        "name": "ALDI Nord",
        "province": "Hamburg",
        "streetAndNumber": "Dratelnstraße 23-25",
        "zip": "21109"
      },
      {
        "addressExtra": null,
        "businessId": 1312729,
        "city": "Leipzig",
        "country": "DE",
        "googlePlaceId": "ChIJZY8a4_34pkcRu0EYooZhZ3A",
        "id": 3180489,
        "identifier": "DE021068",
        "lat": 51.37558605,
        "lng": 12.35986115,
        "name": "ALDI Nord",
        "province": "Sachsen",
        "streetAndNumber": "Max-Liebermann-Straße 19F",
        "zip": "04157"
      },
      {
        "addressExtra": null,
        "businessId": 1312729,
        "city": "Herford",
        "country": "DE",
        "googlePlaceId": "ChIJZbJQCngUukcRie9jzfA17H8",
        "id": 3180490,
        "identifier": "DE005112",
        "lat": 52.12676,
        "lng": 8.68366,
        "name": "ALDI Nord",
        "province": "Nordrhein-Westfalen",
        "streetAndNumber": "Waltgeristraße 93",
        "zip": "32049"
      },
      {
        "addressExtra": null,
        "businessId": 1312729,
        "city": "Neuenhagen",
        "country": "DE",
        "googlePlaceId": "ChIJ1zTKYrw1qEcRHjugY25n3pk",
        "id": 3180492,
        "identifier": "DE024055",
        "lat": 52.53520211557342,
        "lng": 13.697029999475108,
        "name": "ALDI Nord",
        "province": "Brandenburg",
        "streetAndNumber": "Carl-Schmäcke-Straße 29",
        "zip": "15366"
      },
      {
        "addressExtra": null,
        "businessId": 1312729,
        "city": "Naumburg (Saale)",
        "country": "DE",
        "googlePlaceId": "ChIJ2V7gCn6XpkcRLi38G1eKens",
        "id": 3180493,
        "identifier": "DE031066",
        "lat": 51.1487591,
        "lng": 11.8241148,
        "name": "ALDI Nord",
        "province": "Sachsen-Anhalt",
        "streetAndNumber": "Franz-Julius-Hoeltz-Straße 3",
        "zip": "06618"
      },
      {
        "addressExtra": null,
        "businessId": 1312729,
        "city": "Wesseln",
        "country": "DE",
        "googlePlaceId": "ChIJCe2TYcyOs0cRBs7Lk_tOO-E",
        "id": 3180494,
        "identifier": "DE004074",
        "lat": 54.2077393,
        "lng": 9.0859035,
        "name": "ALDI Nord",
        "province": "Schleswig-Holstein",
        "streetAndNumber": "Am Ruthenstrom 2",
        "zip": "25746"
      },
      {
        "addressExtra": null,
        "businessId": 1312729,
        "city": "Guben",
        "country": "DE",
        "googlePlaceId": "ChIJ6c0shuPRB0cR9mrFU4D6Un0",
        "id": 3180495,
        "identifier": "DE024126",
        "lat": 51.95623356,
        "lng": 14.7039429,
        "name": "ALDI Nord",
        "province": "Brandenburg",
        "streetAndNumber": "Karl-Marx-Straße 92-96",
        "zip": "03172"
      },
      {
        "addressExtra": null,
        "businessId": 1312729,
        "city": "Zwickau",
        "country": "DE",
        "googlePlaceId": "ChIJfQwRyS3ToEcRUlGVqEVHNE8",
        "id": 3180496,
        "identifier": "DE021060",
        "lat": 50.67302249,
        "lng": 12.46410988,
        "name": "ALDI Nord",
        "province": "Sachsen",
        "streetAndNumber": "Am Kreuzberg 69",
        "zip": "08064"
      },
      {
        "addressExtra": null,
        "businessId": 1312729,
        "city": "Winsen",
        "country": "DE",
        "googlePlaceId": "ChIJTXLqONfrsUcR2gobe1aLcas",
        "id": 3180497,
        "identifier": "DE003013",
        "lat": 53.35196108,
        "lng": 10.22136297,
        "name": "ALDI Nord",
        "province": "Niedersachsen",
        "streetAndNumber": "Zum Torfmoor 13",
        "zip": "21423"
      },
      {
        "addressExtra": null,
        "businessId": 1312729,
        "city": "Kassel",
        "country": "DE",
        "googlePlaceId": "ChIJN6fRDg8_u0cRr4k2G8Yukqc",
        "id": 3180498,
        "identifier": "DE010044",
        "lat": 51.3318114,
        "lng": 9.4559983,
        "name": "ALDI Nord",
        "province": "Hessen",
        "streetAndNumber": "Wolfhager Straße 274",
        "zip": "34130"
      },
      {
        "addressExtra": null,
        "businessId": 1312729,
        "city": "Brunsbüttel",
        "country": "DE",
        "googlePlaceId": "ChIJ1zke50Lls0cRvIR-dtp1tVM",
        "id": 3180499,
        "identifier": "DE004121",
        "lat": 53.89977788,
        "lng": 9.125031,
        "name": "ALDI Nord",
        "province": "Schleswig-Holstein",
        "streetAndNumber": "Max-Planck-Straße 1-7",
        "zip": "25541"
      },
      {
        "addressExtra": null,
        "businessId": 1312729,
        "city": "Papenburg",
        "country": "DE",
        "googlePlaceId": "ChIJY7O20Sqyt0cRN1gZ4nAYjZ4",
        "id": 3180500,
        "identifier": "DE015011",
        "lat": 53.08095453,
        "lng": 7.3899524,
        "name": "ALDI Nord",
        "province": "Niedersachsen",
        "streetAndNumber": "Am Stadtpark 24",
        "zip": "26871"
      },
      {
        "addressExtra": null,
        "businessId": 1312729,
        "city": "Brake (Unterweser)",
        "country": "DE",
        "googlePlaceId": "ChIJn4Z1-UPPtkcRCuYYF_P1bz8",
        "id": 3180501,
        "identifier": "DE015075",
        "lat": 53.3329252,
        "lng": 8.4598434,
        "name": "ALDI Nord",
        "province": "Niedersachsen",
        "streetAndNumber": "Weserstraße 80",
        "zip": "26919"
      },
      {
        "addressExtra": null,
        "businessId": 1312729,
        "city": "Ahrensfelde",
        "country": "DE",
        "googlePlaceId": "ChIJt3UrotpMqEcR4nCDlx4micI",
        "id": 3180502,
        "identifier": "DE024016",
        "lat": 52.6051017,
        "lng": 13.5246326,
        "name": "ALDI Nord",
        "province": "Brandenburg",
        "streetAndNumber": "Bucher Weg 2",
        "zip": "16356"
      },
      {
        "addressExtra": null,
        "businessId": 1312729,
        "city": "Lübeck",
        "country": "DE",
        "googlePlaceId": "ChIJGySeLS8KskcRr9GgOlxtoLE",
        "id": 3180503,
        "identifier": "DE016148",
        "lat": 53.8711877,
        "lng": 10.7447079,
        "name": "ALDI Nord",
        "province": "Schleswig-Holstein",
        "streetAndNumber": "Grootkoppel 5-7",
        "zip": "23566"
      },
      {
        "addressExtra": null,
        "businessId": 1312729,
        "city": "Landsberg",
        "country": "DE",
        "googlePlaceId": "ChIJy6lqhUNkpkcRgU8b4uHrmVw",
        "id": 3180504,
        "identifier": "DE021104",
        "lat": 51.512674,
        "lng": 12.052029,
        "name": "ALDI Nord",
        "province": "Sachsen-Anhalt",
        "streetAndNumber": "Saarbrücker Straße 1",
        "zip": "06188"
      },
      {
        "addressExtra": null,
        "businessId": 1312729,
        "city": "Gardelegen",
        "country": "DE",
        "googlePlaceId": "ChIJt0MZoAQNr0cRo9MMQoB1-e0",
        "id": 3180505,
        "identifier": "DE026007",
        "lat": 52.52934166,
        "lng": 11.41130993,
        "name": "ALDI Nord",
        "province": "Sachsen-Anhalt",
        "streetAndNumber": "Stendaler Straße 89",
        "zip": "39638"
      },
      {
        "addressExtra": null,
        "businessId": 1312729,
        "city": "Schwarzenbek",
        "country": "DE",
        "googlePlaceId": "ChIJ_wWgFb_7sUcRgDddhmEuS5g",
        "id": 3180506,
        "identifier": "DE016029",
        "lat": 53.5134201,
        "lng": 10.49496,
        "name": "ALDI Nord",
        "province": "Schleswig-Holstein",
        "streetAndNumber": "Hans-Koch-Ring 4",
        "zip": "21493"
      },
      {
        "addressExtra": null,
        "businessId": 1312729,
        "city": "Kyritz",
        "country": "DE",
        "googlePlaceId": "ChIJvzsfwdsyqUcRFq79wg3G1tg",
        "id": 3180507,
        "identifier": "DE020013",
        "lat": 52.9532584,
        "lng": 12.3987554,
        "name": "ALDI Nord",
        "province": "Brandenburg",
        "streetAndNumber": "Pritzwalker Straße 46 b",
        "zip": "16866"
      },
      {
        "addressExtra": null,
        "businessId": 1312729,
        "city": "Lamstedt",
        "country": "DE",
        "googlePlaceId": "ChIJ8bgItb5bsUcRw02n9Q5Ceso",
        "id": 3180510,
        "identifier": "DE003101",
        "lat": 53.624838,
        "lng": 9.0900287,
        "name": "ALDI Nord",
        "province": "Niedersachsen",
        "streetAndNumber": "Am Galgenberg 1",
        "zip": "21769"
      },
      {
        "addressExtra": null,
        "businessId": 1312729,
        "city": "Berlin",
        "country": "DE",
        "googlePlaceId": "ChIJ324yl1hQqEcRZPS7UMyx1NE",
        "id": 3180512,
        "identifier": "DE020089",
        "lat": 52.49342969,
        "lng": 13.33238719,
        "name": "ALDI Nord",
        "province": "Berlin",
        "streetAndNumber": "Prager Platz 1-3",
        "zip": "10779"
      },
      {
        "addressExtra": null,
        "businessId": 1312729,
        "city": "Berlin",
        "country": "DE",
        "googlePlaceId": "ChIJo6Wv4YFaqEcRmAZC0QEMk-4",
        "id": 3180513,
        "identifier": "DE020022",
        "lat": 52.46401428,
        "lng": 13.32669759,
        "name": "ALDI Nord",
        "province": "Berlin",
        "streetAndNumber": "Schloßstraße 4-5",
        "zip": "12163"
      },
      {
        "addressExtra": null,
        "businessId": 1312729,
        "city": "Sögel",
        "country": "DE",
        "googlePlaceId": "ChIJqerU4Zeht0cRZYBOqrGwLNQ",
        "id": 3180514,
        "identifier": "DE025028",
        "lat": 52.83883802,
        "lng": 7.52176599,
        "name": "ALDI Nord",
        "province": "Niedersachsen",
        "streetAndNumber": "Knippers Kohlenhof 3",
        "zip": "49751"
      },
      {
        "addressExtra": null,
        "businessId": 1312729,
        "city": "Berlin",
        "country": "DE",
        "googlePlaceId": "ChIJy9SSvOeyqUcRSZq0K8HcLsw",
        "id": 3180515,
        "identifier": "DE024051",
        "lat": 52.64054701,
        "lng": 13.51463172,
        "name": "ALDI Nord",
        "province": "Berlin",
        "streetAndNumber": "Zepernicker Straße 10",
        "zip": "13125"
      },
      {
        "addressExtra": null,
        "businessId": 1312729,
        "city": "Börnsen",
        "country": "DE",
        "googlePlaceId": "ChIJhc_OCPPxsUcRZV5g3HYtvHc",
        "id": 3180516,
        "identifier": "DE003076",
        "lat": 53.4865517,
        "lng": 10.2886513,
        "name": "ALDI Nord",
        "province": "Schleswig-Holstein",
        "streetAndNumber": "Zwischen den Kreiseln 10",
        "zip": "21039"
      },
      {
        "addressExtra": null,
        "businessId": 1312729,
        "city": "Hamburg",
        "country": "DE",
        "googlePlaceId": "ChIJ9Wdo5daFsUcRHFg1Y_NBKkc",
        "id": 3180517,
        "identifier": "DE016098",
        "lat": 53.5866336,
        "lng": 9.87771602,
        "name": "ALDI Nord",
        "province": "Hamburg",
        "streetAndNumber": "Luruper Hauptstraße 79",
        "zip": "22547"
      },
      {
        "addressExtra": null,
        "businessId": 1312729,
        "city": "Osnabrück",
        "country": "DE",
        "googlePlaceId": "ChIJp4ZjmaDluUcRL_kTDssWXxA",
        "id": 3180518,
        "identifier": "DE025089",
        "lat": 52.28087917,
        "lng": 8.06652259,
        "name": "ALDI Nord",
        "province": "Niedersachsen",
        "streetAndNumber": "Bohmter Straße 64",
        "zip": "49074"
      },
      {
        "addressExtra": null,
        "businessId": 1312729,
        "city": "Egeln",
        "country": "DE",
        "googlePlaceId": "ChIJ_S3vj9ySpUcRwGx7QljuUlg",
        "id": 3180521,
        "identifier": "DE026001",
        "lat": 51.9439842,
        "lng": 11.4286494,
        "name": "ALDI Nord",
        "province": "Sachsen-Anhalt",
        "streetAndNumber": "Am Busbahnhof 1",
        "zip": "39435"
      },
      {
        "addressExtra": null,
        "businessId": 1312729,
        "city": "Wetter (Ruhr)",
        "country": "DE",
        "googlePlaceId": "ChIJ5W4CbHIjuUcRtJqN06eDsfM",
        "id": 3180522,
        "identifier": "DE013062",
        "lat": 51.38021176,
        "lng": 7.39196344,
        "name": "ALDI Nord",
        "province": "Nordrhein-Westfalen",
        "streetAndNumber": "Schöntaler Straße 44b",
        "zip": "58300"
      },
      {
        "addressExtra": null,
        "businessId": 1312729,
        "city": "Löhne-Mennighüffen",
        "country": "DE",
        "googlePlaceId": "ChIJdZIvDQoNukcRIyGf4IAmrk4",
        "id": 3180523,
        "identifier": "DE005117",
        "lat": 52.2199435,
        "lng": 8.70568735,
        "name": "ALDI Nord",
        "province": "Nordrhein-Westfalen",
        "streetAndNumber": "Lübbecker Straße 159 A",
        "zip": "32584"
      },
      {
        "addressExtra": null,
        "businessId": 1312729,
        "city": "Nordenham",
        "country": "DE",
        "googlePlaceId": "ChIJJ_wDYDK4tkcRQBWvd4Jpf0M",
        "id": 3180524,
        "identifier": "DE015037",
        "lat": 53.47737185,
        "lng": 8.47092155,
        "name": "ALDI Nord",
        "province": "Niedersachsen",
        "streetAndNumber": "Mittelweg 105",
        "zip": "26954"
      },
      {
        "addressExtra": null,
        "businessId": 1312729,
        "city": "Chemnitz",
        "country": "DE",
        "googlePlaceId": "ChIJj70V31tGp0cRxcZUqUmP45I",
        "id": 3180525,
        "identifier": "DE036111",
        "lat": 50.83504367,
        "lng": 12.9194772,
        "name": "ALDI Nord",
        "province": "Sachsen",
        "streetAndNumber": "Theaterstraße 7",
        "zip": "09111"
      },
      {
        "addressExtra": null,
        "businessId": 1312729,
        "city": "Lüdenscheid",
        "country": "DE",
        "googlePlaceId": "ChIJY7CzhqlJuUcRjjfQjm2MsD4",
        "id": 3180526,
        "identifier": "DE002009",
        "lat": 51.21752522,
        "lng": 7.65380807,
        "name": "ALDI Nord",
        "province": "Nordrhein-Westfalen",
        "streetAndNumber": "Bräuckenstraße 83",
        "zip": "58511"
      },
      {
        "addressExtra": null,
        "businessId": 1312729,
        "city": "Eutin",
        "country": "DE",
        "googlePlaceId": "ChIJ7SQcoO1vskcRAM6d1MwhUTw",
        "id": 3180527,
        "identifier": "DE004147",
        "lat": 54.1276955,
        "lng": 10.6222494,
        "name": "ALDI Nord",
        "province": "Schleswig-Holstein",
        "streetAndNumber": "Johann-Specht-Straße 5 A",
        "zip": "23701"
      },
      {
        "addressExtra": null,
        "businessId": 1312729,
        "city": "Mühlhausen",
        "country": "DE",
        "googlePlaceId": "ChIJbT6QiKuSpEcRzetiyTezWZ4",
        "id": 3180528,
        "identifier": "DE031037",
        "lat": 51.2119604,
        "lng": 10.4633884,
        "name": "ALDI Nord",
        "province": "Thüringen",
        "streetAndNumber": "Kreuzgraben 5",
        "zip": "99974"
      },
      {
        "addressExtra": null,
        "businessId": 1312729,
        "city": "Bad Oeynhausen",
        "country": "DE",
        "googlePlaceId": "ChIJrw3_VWFtukcR5vJonBLEKpc",
        "id": 3180530,
        "identifier": "DE005091",
        "lat": 52.197686,
        "lng": 8.811301,
        "name": "ALDI Nord",
        "province": "Nordrhein-Westfalen",
        "streetAndNumber": "Weserstraße 17",
        "zip": "32545"
      },
      {
        "addressExtra": null,
        "businessId": 1312729,
        "city": "Lehrte",
        "country": "DE",
        "googlePlaceId": "ChIJ85G1dVMPsEcRS73WY-sKSFo",
        "id": 3180531,
        "identifier": "DE006094",
        "lat": 52.36978891,
        "lng": 9.9729794,
        "name": "ALDI Nord",
        "province": "Niedersachsen",
        "streetAndNumber": "Iltener Straße 11-15",
        "zip": "31275"
      },
      {
        "addressExtra": null,
        "businessId": 1312729,
        "city": "Neustadt am Rübenberge",
        "country": "DE",
        "googlePlaceId": "ChIJp0nOU19jsEcRB41sRRIq2YQ",
        "id": 3180532,
        "identifier": "DE006160",
        "lat": 52.5129184,
        "lng": 9.4519156,
        "name": "ALDI Nord",
        "province": "Niedersachsen",
        "streetAndNumber": "Erika-Najork-Straße 2",
        "zip": "31535"
      },
      {
        "addressExtra": null,
        "businessId": 1312729,
        "city": "Berlin",
        "country": "DE",
        "googlePlaceId": "ChIJfV1jLJBPqEcRUDDgrKffSsA",
        "id": 3180533,
        "identifier": "DE020007",
        "lat": 52.4654377,
        "lng": 13.4221843,
        "name": "ALDI Nord",
        "province": "Berlin",
        "streetAndNumber": "Silbersteinstraße 146",
        "zip": "12051"
      },
      {
        "addressExtra": null,
        "businessId": 1312729,
        "city": "Wanzleben-Börde",
        "country": "DE",
        "googlePlaceId": "ChIJ0VZ25X6LpUcRDLKK8RxdED0",
        "id": 3180534,
        "identifier": "DE026056",
        "lat": 52.06344915,
        "lng": 11.44964494,
        "name": "ALDI Nord",
        "province": "Sachsen-Anhalt",
        "streetAndNumber": "Bucher Weg 10",
        "zip": "39164"
      },
      {
        "addressExtra": null,
        "businessId": 1312729,
        "city": "Brakel",
        "country": "DE",
        "googlePlaceId": "ChIJT-yOhoL-ukcRb7c4LZitIM0",
        "id": 3180536,
        "identifier": "DE005046",
        "lat": 51.71326984,
        "lng": 9.18083649,
        "name": "ALDI Nord",
        "province": "Nordrhein-Westfalen",
        "streetAndNumber": "Am Sudheimer Weg 5",
        "zip": "33034"
      },
      {
        "addressExtra": null,
        "businessId": 1312729,
        "city": "Elmshorn",
        "country": "DE",
        "googlePlaceId": "ChIJicyRGEbUs0cRAwB3WxyQXjQ",
        "id": 3180537,
        "identifier": "DE004133",
        "lat": 53.74268585,
        "lng": 9.70983381,
        "name": "ALDI Nord",
        "province": "Schleswig-Holstein",
        "streetAndNumber": "Ramskamp 102",
        "zip": "25337"
      },
      {
        "addressExtra": null,
        "businessId": 1312729,
        "city": "Katlenburg",
        "country": "DE",
        "googlePlaceId": "ChIJc25cbrcupUcR7DDBvoEmmaU",
        "id": 3180538,
        "identifier": "DE010081",
        "lat": 51.68114572,
        "lng": 10.11003346,
        "name": "ALDI Nord",
        "province": "Niedersachsen",
        "streetAndNumber": "Albrechtshäuser Weg 1-3",
        "zip": "37191"
      },
      {
        "addressExtra": null,
        "businessId": 1312729,
        "city": "Gera",
        "country": "DE",
        "googlePlaceId": "ChIJSVmCtGzPpkcRtsJFl03770U",
        "id": 3180539,
        "identifier": "DE031076",
        "lat": 50.8672727,
        "lng": 12.0785884,
        "name": "ALDI Nord",
        "province": "Thüringen",
        "streetAndNumber": "Hinter dem Südbahnhof 1",
        "zip": "07548"
      },
      {
        "addressExtra": null,
        "businessId": 1312729,
        "city": "Herrnburg",
        "country": "DE",
        "googlePlaceId": "ChIJlQa0DcMJskcRl1UaxL2-3vE",
        "id": 3180540,
        "identifier": "DE016110",
        "lat": 53.8390723,
        "lng": 10.7610821,
        "name": "ALDI Nord",
        "province": "Mecklenburg-Vorpommern",
        "streetAndNumber": "Bahnhofstraße 2",
        "zip": "23923"
      },
      {
        "addressExtra": null,
        "businessId": 1312729,
        "city": "Schwerin",
        "country": "DE",
        "googlePlaceId": "ChIJxypEtBParUcRDOqDQqjaLjA",
        "id": 3180541,
        "identifier": "DE003080",
        "lat": 53.64415621,
        "lng": 11.42408711,
        "name": "ALDI Nord",
        "province": "Mecklenburg-Vorpommern",
        "streetAndNumber": "Güstrower Straße 34",
        "zip": "19055"
      },
      {
        "addressExtra": null,
        "businessId": 1312729,
        "city": "Leipzig",
        "country": "DE",
        "googlePlaceId": "ChIJI0ELQf5XpkcRgSqomcfm1Tk",
        "id": 3180542,
        "identifier": "DE021007",
        "lat": 51.3670028,
        "lng": 12.3852738,
        "name": "ALDI Nord",
        "province": "Sachsen",
        "streetAndNumber": "Delitzscher Straße 61",
        "zip": "04129"
      },
      {
        "addressExtra": null,
        "businessId": 1312729,
        "city": "Magdeburg",
        "country": "DE",
        "googlePlaceId": "ChIJP1kgmTb0pUcRqGo6emYZFwo",
        "id": 3180544,
        "identifier": "DE026005",
        "lat": 52.08369968,
        "lng": 11.60133092,
        "name": "ALDI Nord",
        "province": "Sachsen-Anhalt",
        "streetAndNumber": "Salbker Chaussee 67-71",
        "zip": "39118"
      },
      {
        "addressExtra": null,
        "businessId": 1312729,
        "city": "Hamburg",
        "country": "DE",
        "googlePlaceId": "ChIJA1Z_rqCIsUcRAc1UBGCn9k4",
        "id": 3180545,
        "identifier": "DE016086",
        "lat": 53.59992958,
        "lng": 9.95835982,
        "name": "ALDI Nord",
        "province": "Hamburg",
        "streetAndNumber": "Grelckstraße 2",
        "zip": "22529"
      },
      {
        "addressExtra": null,
        "businessId": 1312729,
        "city": "Brand-Erbisdorf",
        "country": "DE",
        "googlePlaceId": "ChIJTzUmht_hCUcRJRnxMLPo4cU",
        "id": 3180546,
        "identifier": "DE036007",
        "lat": 50.85702628,
        "lng": 13.32053178,
        "name": "ALDI Nord",
        "province": "Sachsen",
        "streetAndNumber": "Großhartmannsdorfer Straße 13a",
        "zip": "09618"
      },
      {
        "addressExtra": null,
        "businessId": 1312729,
        "city": "Meiningen",
        "country": "DE",
        "googlePlaceId": "ChIJ0crSJjp1o0cRKKo5o9s-nw4",
        "id": 3180547,
        "identifier": "DE031025",
        "lat": 50.58432361,
        "lng": 10.41285174,
        "name": "ALDI Nord",
        "province": "Thüringen",
        "streetAndNumber": "Leipziger Straße 82",
        "zip": "98617"
      },
      {
        "addressExtra": null,
        "businessId": 1312729,
        "city": "Bielefeld",
        "country": "DE",
        "googlePlaceId": "ChIJKwCLMhQ9ukcRv-hHm1g-DL4",
        "id": 3180548,
        "identifier": "DE005022",
        "lat": 52.0265495,
        "lng": 8.5277745,
        "name": "ALDI Nord",
        "province": "Nordrhein-Westfalen",
        "streetAndNumber": "Große-Kurfürsten-Straße 82",
        "zip": "33615"
      },
      {
        "addressExtra": null,
        "businessId": 1312729,
        "city": "Hückeswagen",
        "country": "DE",
        "googlePlaceId": "ChIJyeksZkAtuUcRF1gFW80Hm48",
        "id": 3180551,
        "identifier": "DE002084",
        "lat": 51.13593583,
        "lng": 7.34104861,
        "name": "ALDI Nord",
        "province": "Nordrhein-Westfalen",
        "streetAndNumber": "Stahlschmidtsbrücke 15",
        "zip": "42499"
      },
      {
        "addressExtra": null,
        "businessId": 1312729,
        "city": "Herzberg am Harz",
        "country": "DE",
        "googlePlaceId": "ChIJT9KCBF0hpUcRlgsHLLORmQY",
        "id": 3180552,
        "identifier": "DE010002",
        "lat": 51.64953725,
        "lng": 10.3311091,
        "name": "ALDI Nord",
        "province": "Niedersachsen",
        "streetAndNumber": "Bahnhofstraße 2",
        "zip": "37412"
      },
      {
        "addressExtra": null,
        "businessId": 1312729,
        "city": "Siegen",
        "country": "DE",
        "googlePlaceId": "ChIJY8aELLAcvEcRmUBVctvyhow",
        "id": 3180553,
        "identifier": "DE002093",
        "lat": 50.895058,
        "lng": 8.0355021,
        "name": "ALDI Nord",
        "province": "Nordrhein-Westfalen",
        "streetAndNumber": "Känerbergstraße 16",
        "zip": "57076"
      },
      {
        "addressExtra": null,
        "businessId": 1312729,
        "city": "Kiel",
        "country": "DE",
        "googlePlaceId": "ChIJX5MyNb5XskcRjdhvakFidJs",
        "id": 3180555,
        "identifier": "DE004103",
        "lat": 54.3290837,
        "lng": 10.1984425,
        "name": "ALDI Nord",
        "province": "Schleswig-Holstein",
        "streetAndNumber": "Schönkirchener Straße 80 b",
        "zip": "24149"
      },
      {
        "addressExtra": null,
        "businessId": 1312729,
        "city": "Peine",
        "country": "DE",
        "googlePlaceId": "ChIJ43Q7Gn_-r0cRvIXBQwBI5eU",
        "id": 3180556,
        "identifier": "DE006057",
        "lat": 52.3404937,
        "lng": 10.2573797,
        "name": "ALDI Nord",
        "province": "Niedersachsen",
        "streetAndNumber": "Caroline-Herschel-Straße 1",
        "zip": "31228"
      },
      {
        "addressExtra": null,
        "businessId": 1312729,
        "city": "Bielefeld",
        "country": "DE",
        "googlePlaceId": "ChIJB_De8e87ukcRyaAenkC0mLc",
        "id": 3180557,
        "identifier": "DE005052",
        "lat": 51.9514191,
        "lng": 8.568947,
        "name": "ALDI Nord",
        "province": "Nordrhein-Westfalen",
        "streetAndNumber": "Hansestraße 1",
        "zip": "33689"
      },
      {
        "addressExtra": null,
        "businessId": 1312729,
        "city": "Holzminden",
        "country": "DE",
        "googlePlaceId": "ChIJAXHars_oukcRTrksz73ONrM",
        "id": 3180558,
        "identifier": "DE010100",
        "lat": 51.8427496,
        "lng": 9.465652,
        "name": "ALDI Nord",
        "province": "Niedersachsen",
        "streetAndNumber": "Kopernikusstraße 13",
        "zip": "37603"
      },
      {
        "addressExtra": null,
        "businessId": 1312729,
        "city": "Buchholz in der Nordheide",
        "country": "DE",
        "googlePlaceId": "ChIJ3YNCh--XsUcRBdNQDE3Zg24",
        "id": 3180559,
        "identifier": "DE003102",
        "lat": 53.3383635,
        "lng": 9.8793864,
        "name": "ALDI Nord",
        "province": "Niedersachsen",
        "streetAndNumber": "Hamburger Straße 85",
        "zip": "21244"
      },
      {
        "addressExtra": null,
        "businessId": 1312729,
        "city": "Recklinghausen",
        "country": "DE",
        "googlePlaceId": "ChIJu_MOpzDjuEcRtaPIOw5e_SE",
        "id": 3180560,
        "identifier": "DE001048",
        "lat": 51.6207057,
        "lng": 7.2051715,
        "name": "ALDI Nord",
        "province": "Nordrhein-Westfalen",
        "streetAndNumber": "Oerweg 50",
        "zip": "45657"
      },
      {
        "addressExtra": null,
        "businessId": 1312729,
        "city": "Osterode am Harz",
        "country": "DE",
        "googlePlaceId": "ChIJgVLj9kglpUcRG0LDqfnZ5cM",
        "id": 3180561,
        "identifier": "DE010113",
        "lat": 51.73626017,
        "lng": 10.23829789,
        "name": "ALDI Nord",
        "province": "Niedersachsen",
        "streetAndNumber": "Lindenstraße 26",
        "zip": "37520"
      },
      {
        "addressExtra": null,
        "businessId": 1312729,
        "city": "Seelow",
        "country": "DE",
        "googlePlaceId": "ChIJ1Z_Bsm94B0cRuojdKt7HypU",
        "id": 3180562,
        "identifier": "DE024019",
        "lat": 52.5279834,
        "lng": 14.3651604,
        "name": "ALDI Nord",
        "province": "Brandenburg",
        "streetAndNumber": "Diedersdorfer Straße 12 b",
        "zip": "15306"
      },
      {
        "addressExtra": null,
        "businessId": 1312729,
        "city": "Kölleda",
        "country": "DE",
        "googlePlaceId": "ChIJQ3__s9U9pEcR9yblVtaRegI",
        "id": 3180563,
        "identifier": "DE031018",
        "lat": 51.1819481,
        "lng": 11.2507554,
        "name": "ALDI Nord",
        "province": "Thüringen",
        "streetAndNumber": "Weimarische Straße 1 A",
        "zip": "99625"
      },
      {
        "addressExtra": null,
        "businessId": 1312729,
        "city": "Bodenwerder",
        "country": "DE",
        "googlePlaceId": "ChIJN34XlauUukcRFaziyom77OQ",
        "id": 3180564,
        "identifier": "DE010102",
        "lat": 51.9817645,
        "lng": 9.503971,
        "name": "ALDI Nord",
        "province": "Niedersachsen",
        "streetAndNumber": "Ernst-Reuter-Straße 6",
        "zip": "37619"
      },
      {
        "addressExtra": null,
        "businessId": 1312729,
        "city": "Schmallenberg",
        "country": "DE",
        "googlePlaceId": "ChIJl9x07aTxu0cRNcg66w23kz4",
        "id": 3180565,
        "identifier": "DE013105",
        "lat": 51.18427668,
        "lng": 8.32091816,
        "name": "ALDI Nord",
        "province": "Nordrhein-Westfalen",
        "streetAndNumber": "Alter Bahnhof 26",
        "zip": "57392"
      },
      {
        "addressExtra": null,
        "businessId": 1312729,
        "city": "Herne",
        "country": "DE",
        "googlePlaceId": "ChIJGQB62zPhuEcRffOxh5YNyD0",
        "id": 3180566,
        "identifier": "DE001016",
        "lat": 51.5234872,
        "lng": 7.1533354,
        "name": "ALDI Nord",
        "province": "Nordrhein-Westfalen",
        "streetAndNumber": "Berliner Straße 12",
        "zip": "44652"
      },
      {
        "addressExtra": null,
        "businessId": 1312729,
        "city": "Wittstock",
        "country": "DE",
        "googlePlaceId": "ChIJgTFDBFlLqUcRGf_DrWWLU8Q",
        "id": 3180567,
        "identifier": "DE020080",
        "lat": 53.16399845,
        "lng": 12.49385876,
        "name": "ALDI Nord",
        "province": "Brandenburg",
        "streetAndNumber": "Röbeler Straße 1",
        "zip": "16909"
      },
      {
        "addressExtra": null,
        "businessId": 1312729,
        "city": "Hohenhameln",
        "country": "DE",
        "googlePlaceId": "ChIJYbQJhw-qukcRW1uqmIxEBMk",
        "id": 3180568,
        "identifier": "DE006030",
        "lat": 52.26230227,
        "lng": 10.07362237,
        "name": "ALDI Nord",
        "province": "Niedersachsen",
        "streetAndNumber": "Meierkamp 2",
        "zip": "31249"
      },
      {
        "addressExtra": null,
        "businessId": 1312729,
        "city": "Radebeul",
        "country": "DE",
        "googlePlaceId": "ChIJE-IcNDDOCUcR4b1ssicWG80",
        "id": 3180570,
        "identifier": "DE036036",
        "lat": 51.0984998,
        "lng": 13.6877894,
        "name": "ALDI Nord",
        "province": "Sachsen",
        "streetAndNumber": "Meißner Straße 47A",
        "zip": "01445"
      },
      {
        "addressExtra": null,
        "businessId": 1312729,
        "city": "Weyhe",
        "country": "DE",
        "googlePlaceId": "ChIJH-NFpVHXsEcRKvX092V59io",
        "id": 3180571,
        "identifier": "DE007008",
        "lat": 52.9881116,
        "lng": 8.7858791,
        "name": "ALDI Nord",
        "province": "Niedersachsen",
        "streetAndNumber": "Bremer Straße 50",
        "zip": "28844"
      },
      {
        "addressExtra": null,
        "businessId": 1312729,
        "city": "Waren",
        "country": "DE",
        "googlePlaceId": "ChIJ0wK_txn5q0cRhGLK1xGx6Js",
        "id": 3180572,
        "identifier": "DE029072",
        "lat": 53.51978063,
        "lng": 12.71510573,
        "name": "ALDI Nord",
        "province": "Mecklenburg-Vorpommern",
        "streetAndNumber": "F.-Wilhelm-Raiffeisen-Straße 1b",
        "zip": "17192"
      },
      {
        "addressExtra": null,
        "businessId": 1312729,
        "city": "Bielefeld",
        "country": "DE",
        "googlePlaceId": "ChIJibuqZ5U8ukcRs8fAdjw3i7o",
        "id": 3180573,
        "identifier": "DE005049",
        "lat": 51.98839911,
        "lng": 8.51317563,
        "name": "ALDI Nord",
        "province": "Nordrhein-Westfalen",
        "streetAndNumber": "Hauptstraße 53",
        "zip": "33647"
      },
      {
        "addressExtra": null,
        "businessId": 1312729,
        "city": "Ebsdorfergrund",
        "country": "DE",
        "googlePlaceId": "ChIJ4cG1NVaKvEcRf_qraX3z7Qk",
        "id": 3180574,
        "identifier": "DE005148",
        "lat": 50.72388924,
        "lng": 8.79606146,
        "name": "ALDI Nord",
        "province": "Hessen",
        "streetAndNumber": "Hachborner Straße 2B",
        "zip": "35085"
      },
      {
        "addressExtra": null,
        "businessId": 1312729,
        "city": "Hamm",
        "country": "DE",
        "googlePlaceId": "ChIJe6QpolhxuUcRVD2VugvcuYc",
        "id": 3180575,
        "identifier": "DE013028",
        "lat": 51.6609668,
        "lng": 7.8336002,
        "name": "ALDI Nord",
        "province": "Nordrhein-Westfalen",
        "streetAndNumber": "Werler Straße 244",
        "zip": "59063"
      },
      {
        "addressExtra": null,
        "businessId": 1312729,
        "city": "Berlin",
        "country": "DE",
        "googlePlaceId": "ChIJWbAJLgNGqEcRr95DGP-gfN0",
        "id": 3180576,
        "identifier": "DE020100",
        "lat": 52.4422087,
        "lng": 13.5057039,
        "name": "ALDI Nord",
        "province": "Berlin",
        "streetAndNumber": "Winckelmannstraße 38-42",
        "zip": "12487"
      },
      {
        "addressExtra": null,
        "businessId": 1312729,
        "city": "Haren (Ems)",
        "country": "DE",
        "googlePlaceId": "ChIJvZOrJ7iVt0cRBxw7J_7xXF0",
        "id": 3180577,
        "identifier": "DE025047",
        "lat": 52.7940794,
        "lng": 7.2260039,
        "name": "ALDI Nord",
        "province": "Niedersachsen",
        "streetAndNumber": "Rütenbrocker Straße 24",
        "zip": "49733"
      },
      {
        "addressExtra": null,
        "businessId": 1312729,
        "city": "Schönebeck",
        "country": "DE",
        "googlePlaceId": "ChIJU_bBZg76pUcRtqNl0MSGFj4",
        "id": 3180578,
        "identifier": "DE026023",
        "lat": 52.01644056,
        "lng": 11.73313351,
        "name": "ALDI Nord",
        "province": "Sachsen-Anhalt",
        "streetAndNumber": "Schillerstraße 11",
        "zip": "39218"
      },
      {
        "addressExtra": null,
        "businessId": 1312729,
        "city": "Anklam",
        "country": "DE",
        "googlePlaceId": "ChIJxRsLWXeuq0cRLaKRvpw5usk",
        "id": 3180579,
        "identifier": "DE029038",
        "lat": 53.8594685,
        "lng": 13.6939226,
        "name": "ALDI Nord",
        "province": "Mecklenburg-Vorpommern",
        "streetAndNumber": "Silostraße 3A",
        "zip": "17389"
      },
      {
        "addressExtra": null,
        "businessId": 1312729,
        "city": "Hörstel",
        "country": "DE",
        "googlePlaceId": "ChIJm0SFWubRuUcRtu7CjuV2YEk",
        "id": 3180580,
        "identifier": "DE025074",
        "lat": 52.29635226,
        "lng": 7.59353574,
        "name": "ALDI Nord",
        "province": "Nordrhein-Westfalen",
        "streetAndNumber": "Dürerstraße 11",
        "zip": "48477"
      },
      {
        "addressExtra": null,
        "businessId": 1312729,
        "city": "Berlin",
        "country": "DE",
        "googlePlaceId": "ChIJy5ZcypJWqEcRvoM46nj5kQk",
        "id": 3180581,
        "identifier": "DE020030",
        "lat": 52.5411417,
        "lng": 13.2485401,
        "name": "ALDI Nord",
        "province": "Berlin",
        "streetAndNumber": "Paulsternstraße 20",
        "zip": "13599"
      },
      {
        "addressExtra": null,
        "businessId": 1312729,
        "city": "Eslohe (Sauerland)",
        "country": "DE",
        "googlePlaceId": "ChIJT0-Qd5Hku0cRFWcXtk2L6fw",
        "id": 3180582,
        "identifier": "DE013046",
        "lat": 51.25526486,
        "lng": 8.16811735,
        "name": "ALDI Nord",
        "province": "Nordrhein-Westfalen",
        "streetAndNumber": "Tölckestraße 6",
        "zip": "59889"
      },
      {
        "addressExtra": null,
        "businessId": 1312729,
        "city": "Rehburg-Loccum",
        "country": "DE",
        "googlePlaceId": "ChIJRS-NDvaEsEcRY53Febyao4A",
        "id": 3180585,
        "identifier": "DE006163",
        "lat": 52.4615269,
        "lng": 9.1445949,
        "name": "ALDI Nord",
        "province": "Niedersachsen",
        "streetAndNumber": "Leeser Straße 33",
        "zip": "31547"
      },
      {
        "addressExtra": null,
        "businessId": 1312729,
        "city": "Stadtallendorf",
        "country": "DE",
        "googlePlaceId": "ChIJPaOY3AaQvEcR3z1Ii69LPGc",
        "id": 3180586,
        "identifier": "DE010056",
        "lat": 50.82678527,
        "lng": 9.01132449,
        "name": "ALDI Nord",
        "province": "Hessen",
        "streetAndNumber": "Herrenwaldstrasse 6b",
        "zip": "35260"
      },
      {
        "addressExtra": null,
        "businessId": 1312729,
        "city": "Siegen",
        "country": "DE",
        "googlePlaceId": "ChIJBzW5HJ4cvEcRmI2pOWCa9ak",
        "id": 3180587,
        "identifier": "DE002092",
        "lat": 50.87712324,
        "lng": 8.04330297,
        "name": "ALDI Nord",
        "province": "Nordrhein-Westfalen",
        "streetAndNumber": "Marienborner Straße 259",
        "zip": "57074"
      },
      {
        "addressExtra": null,
        "businessId": 1312729,
        "city": "Remscheid",
        "country": "DE",
        "googlePlaceId": "ChIJQ2smzlcquUcRBJX8--w3x5k",
        "id": 3180588,
        "identifier": "DE002011",
        "lat": 51.16697037,
        "lng": 7.20263415,
        "name": "ALDI Nord",
        "province": "Nordrhein-Westfalen",
        "streetAndNumber": "Burger Straße 85a",
        "zip": "42859"
      },
      {
        "addressExtra": null,
        "businessId": 1312729,
        "city": "Metelen",
        "country": "DE",
        "googlePlaceId": "ChIJmcMA60NHuEcRmKUEjFmW1iI",
        "id": 3180589,
        "identifier": "DE025083",
        "lat": 52.140314,
        "lng": 7.212252,
        "name": "ALDI Nord",
        "province": "Nordrhein-Westfalen",
        "streetAndNumber": "Schöppingener Straße 12",
        "zip": "48629"
      },
      {
        "addressExtra": null,
        "businessId": 1312729,
        "city": "Dinklage",
        "country": "DE",
        "googlePlaceId": "ChIJH0_GDfRDt0cRO0H5jrZMHao",
        "id": 3180590,
        "identifier": "DE025039",
        "lat": 52.66479152,
        "lng": 8.11817126,
        "name": "ALDI Nord",
        "province": "Niedersachsen",
        "streetAndNumber": "Quakenbrücker Straße 6",
        "zip": "49413"
      },
      {
        "addressExtra": null,
        "businessId": 1312729,
        "city": "Berlin",
        "country": "DE",
        "googlePlaceId": "ChIJQWSEVahFqEcRUdDYMWs6qBc",
        "id": 3180591,
        "identifier": "DE020042",
        "lat": 52.4189361,
        "lng": 13.422056,
        "name": "ALDI Nord",
        "province": "Berlin",
        "streetAndNumber": "Marienfelder Chaussee 29",
        "zip": "12349"
      },
      {
        "addressExtra": null,
        "businessId": 1312729,
        "city": "Rendsburg",
        "country": "DE",
        "googlePlaceId": "ChIJIydSYK-ms0cRLcjS41e3stg",
        "id": 3180592,
        "identifier": "DE004100",
        "lat": 54.32005209,
        "lng": 9.62489516,
        "name": "ALDI Nord",
        "province": "Schleswig-Holstein",
        "streetAndNumber": "Friedrichstädter Straße 57A",
        "zip": "24768"
      },
      {
        "addressExtra": null,
        "businessId": 1312729,
        "city": "Köthen (Anhalt)",
        "country": "DE",
        "googlePlaceId": "ChIJUYMLM6x0pkcR-AANZFP9uUI",
        "id": 3180593,
        "identifier": "DE026076",
        "lat": 51.74842911,
        "lng": 11.94904311,
        "name": "ALDI Nord",
        "province": "Sachsen-Anhalt",
        "streetAndNumber": "Konrad-Adenauer-Allee 3",
        "zip": "06366"
      },
      {
        "addressExtra": null,
        "businessId": 1312729,
        "city": "Bad Langensalza",
        "country": "DE",
        "googlePlaceId": "ChIJBT8DQx2KpEcRCaMheWyLK3Q",
        "id": 3180594,
        "identifier": "DE031043",
        "lat": 51.10450772,
        "lng": 10.65792956,
        "name": "ALDI Nord",
        "province": "Thüringen",
        "streetAndNumber": "Tonnaer Straße 36A",
        "zip": "99947"
      },
      {
        "addressExtra": null,
        "businessId": 1312729,
        "city": "Wildeshausen",
        "country": "DE",
        "googlePlaceId": "ChIJQ2xrpfQxt0cRTB5qxzsosfw",
        "id": 3180595,
        "identifier": "DE007034",
        "lat": 52.8989762,
        "lng": 8.4175999,
        "name": "ALDI Nord",
        "province": "Niedersachsen",
        "streetAndNumber": "Dr.-Dürr-Straße 12",
        "zip": "27793"
      },
      {
        "addressExtra": null,
        "businessId": 1312729,
        "city": "Freyburg (Unstrut)",
        "country": "DE",
        "googlePlaceId": "ChIJm-M2PwCbpkcR2CdmctkUpUk",
        "id": 3180596,
        "identifier": "DE031047",
        "lat": 51.22022692,
        "lng": 11.77264195,
        "name": "ALDI Nord",
        "province": "Sachsen-Anhalt",
        "streetAndNumber": "Friedhofsweg 2",
        "zip": "06632"
      },
      {
        "addressExtra": null,
        "businessId": 1312729,
        "city": "Berlin",
        "country": "DE",
        "googlePlaceId": "ChIJAwdY2B5FqEcR_MhgTsqXUns",
        "id": 3180597,
        "identifier": "DE020031",
        "lat": 52.41851369,
        "lng": 13.39079794,
        "name": "ALDI Nord",
        "province": "Berlin",
        "streetAndNumber": "Richard-Tauber-Damm 6",
        "zip": "12277"
      },
      {
        "addressExtra": null,
        "businessId": 1312729,
        "city": "Baddeckenstedt",
        "country": "DE",
        "googlePlaceId": "ChIJla056wZSpUcRv-dJ4YtZu20",
        "id": 3180598,
        "identifier": "DE010108",
        "lat": 52.0929324,
        "lng": 10.2185654,
        "name": "ALDI Nord",
        "province": "Niedersachsen",
        "streetAndNumber": "Heinrich-Nordhoff-Straße 3",
        "zip": "38271"
      },
      {
        "addressExtra": null,
        "businessId": 1312729,
        "city": "Hamburg",
        "country": "DE",
        "googlePlaceId": "ChIJNX6qi22JsUcRq0Cx8jdEX4o",
        "id": 3180599,
        "identifier": "DE016008",
        "lat": 53.60763718,
        "lng": 10.05610481,
        "name": "ALDI Nord",
        "province": "Hamburg",
        "streetAndNumber": "Steilshooper Straße 317",
        "zip": "22309"
      },
      {
        "addressExtra": null,
        "businessId": 1312729,
        "city": "Elsterwerda",
        "country": "DE",
        "googlePlaceId": "ChIJ28cDoxeJp0cRrnUmSWvQghE",
        "id": 3180600,
        "identifier": "DE021122",
        "lat": 51.46490108,
        "lng": 13.53396163,
        "name": "ALDI Nord",
        "province": "Brandenburg",
        "streetAndNumber": "Lauchhammer Straße 60",
        "zip": "04910"
      },
      {
        "addressExtra": null,
        "businessId": 1312729,
        "city": "Hemmoor",
        "country": "DE",
        "googlePlaceId": "ChIJM2msydBesUcRL23r0rJzrfs",
        "id": 3180601,
        "identifier": "DE003009",
        "lat": 53.6841064,
        "lng": 9.1607449,
        "name": "ALDI Nord",
        "province": "Niedersachsen",
        "streetAndNumber": "Otto-Peschel-Straße 14-16",
        "zip": "21745"
      },
      {
        "addressExtra": null,
        "businessId": 1312729,
        "city": "Bad Berleburg",
        "country": "DE",
        "googlePlaceId": "ChIJBWjKXl31u0cRq9qUNtj_rnk",
        "id": 3180602,
        "identifier": "DE013093",
        "lat": 51.05446558,
        "lng": 8.39399579,
        "name": "ALDI Nord",
        "province": "Nordrhein-Westfalen",
        "streetAndNumber": "Poststrasse 59",
        "zip": "57319"
      },
      {
        "addressExtra": null,
        "businessId": 1312729,
        "city": "Herten",
        "country": "DE",
        "googlePlaceId": "ChIJyVDIU4XkuEcRzF0SGIvYMyQ",
        "id": 3180603,
        "identifier": "DE001059",
        "lat": 51.60280591,
        "lng": 7.15473953,
        "name": "ALDI Nord",
        "province": "Nordrhein-Westfalen",
        "streetAndNumber": "Zum Alten Schacht 4",
        "zip": "45699"
      },
      {
        "addressExtra": null,
        "businessId": 1312729,
        "city": "Gronau (Leine)",
        "country": "DE",
        "googlePlaceId": "ChIJP0_Db3G7ukcRfXdokRTKAo0",
        "id": 3180604,
        "identifier": "DE010106",
        "lat": 52.0899519,
        "lng": 9.78784519,
        "name": "ALDI Nord",
        "province": "Niedersachsen",
        "streetAndNumber": "Bethelner Landstraße 24",
        "zip": "31028"
      },
      {
        "addressExtra": null,
        "businessId": 1312729,
        "city": "Neuenrade",
        "country": "DE",
        "googlePlaceId": "ChIJk-um1wtFuUcRkYnBPE1OJS0",
        "id": 3180605,
        "identifier": "DE002037",
        "lat": 51.28257761,
        "lng": 7.78898856,
        "name": "ALDI Nord",
        "province": "Nordrhein-Westfalen",
        "streetAndNumber": "Bahnhofstraße 28",
        "zip": "58809"
      },
      {
        "addressExtra": null,
        "businessId": 1312729,
        "city": "Gadebusch",
        "country": "DE",
        "googlePlaceId": "ChIJ6d_CymLmrUcRCOyQ7q5Ui6g",
        "id": 3180607,
        "identifier": "DE029089",
        "lat": 53.7015537,
        "lng": 11.1122228,
        "name": "ALDI Nord",
        "province": "Mecklenburg-Vorpommern",
        "streetAndNumber": "Johann-Stelling-Straße 22",
        "zip": "19205"
      },
      {
        "addressExtra": null,
        "businessId": 1312729,
        "city": "Wallenhorst",
        "country": "DE",
        "googlePlaceId": "ChIJgUTgNzfhuUcRg1x1EHcOt38",
        "id": 3180608,
        "identifier": "DE025099",
        "lat": 52.3558884,
        "lng": 7.9989489,
        "name": "ALDI Nord",
        "province": "Niedersachsen",
        "streetAndNumber": "Hansastraße 5",
        "zip": "49134"
      },
      {
        "addressExtra": null,
        "businessId": 1312729,
        "city": "Stockelsdorf",
        "country": "DE",
        "googlePlaceId": "ChIJo2CHtRcMskcRs3moFzOfXvY",
        "id": 3180609,
        "identifier": "DE016138",
        "lat": 53.88798977,
        "lng": 10.64829269,
        "name": "ALDI Nord",
        "province": "Schleswig-Holstein",
        "streetAndNumber": "Rathausmarkt 3 b",
        "zip": "23617"
      },
      {
        "addressExtra": null,
        "businessId": 1312729,
        "city": "Genthin",
        "country": "DE",
        "googlePlaceId": "ChIJ3Snix0S1qEcRWKDFOlUxvAI",
        "id": 3180610,
        "identifier": "DE026031",
        "lat": 52.4091868,
        "lng": 12.1510283,
        "name": "ALDI Nord",
        "province": "Sachsen-Anhalt",
        "streetAndNumber": "Bergzower Straße 6",
        "zip": "39307"
      },
      {
        "addressExtra": null,
        "businessId": 1312729,
        "city": "Bremen",
        "country": "DE",
        "googlePlaceId": "ChIJGZ7OwJbTtkcRGPNrcIMKznM",
        "id": 3180611,
        "identifier": "DE007088",
        "lat": 53.1986797,
        "lng": 8.5722436,
        "name": "ALDI Nord",
        "province": "Bremen",
        "streetAndNumber": "Schwaneweder Straße 27",
        "zip": "28779"
      },
      {
        "addressExtra": null,
        "businessId": 1312729,
        "city": "Oldenburg",
        "country": "DE",
        "googlePlaceId": "ChIJiTyWlL_ftkcRU5zABYKn3BY",
        "id": 3180613,
        "identifier": "DE015067",
        "lat": 53.18249146,
        "lng": 8.22988164,
        "name": "ALDI Nord",
        "province": "Niedersachsen",
        "streetAndNumber": "Stubbenweg 31",
        "zip": "26125"
      },
      {
        "addressExtra": null,
        "businessId": 1312729,
        "city": "Hamburg",
        "country": "DE",
        "googlePlaceId": "ChIJBXKwX2qMsUcRALen1vcNJPU",
        "id": 3180614,
        "identifier": "DE016031",
        "lat": 53.55741709,
        "lng": 10.10291922,
        "name": "ALDI Nord",
        "province": "Hamburg",
        "streetAndNumber": "Querkamp 69",
        "zip": "22119"
      },
      {
        "addressExtra": null,
        "businessId": 1312729,
        "city": "Schafflund",
        "country": "DE",
        "googlePlaceId": "ChIJedZM6Dtgs0cRUH4jmk4vT8s",
        "id": 3180615,
        "identifier": "DE004077",
        "lat": 54.76239101,
        "lng": 9.16917023,
        "name": "ALDI Nord",
        "province": "Schleswig-Holstein",
        "streetAndNumber": "Hauptstraße 96",
        "zip": "24980"
      },
      {
        "addressExtra": null,
        "businessId": 1312729,
        "city": "Edermünde",
        "country": "DE",
        "googlePlaceId": "ChIJgzddcftDu0cR2lJvldFpwqU",
        "id": 3180616,
        "identifier": "DE010079",
        "lat": 51.2108777,
        "lng": 9.4490818,
        "name": "ALDI Nord",
        "province": "Hessen",
        "streetAndNumber": "Zur Mühle 10",
        "zip": "34295"
      },
      {
        "addressExtra": null,
        "businessId": 1312729,
        "city": "Meldorf",
        "country": "DE",
        "googlePlaceId": "ChIJs45-hTTzs0cR1UzbucroUCc",
        "id": 3180617,
        "identifier": "DE004039",
        "lat": 54.091309,
        "lng": 9.079239,
        "name": "ALDI Nord",
        "province": "Schleswig-Holstein",
        "streetAndNumber": "Raiffeisenplatz 14",
        "zip": "25704"
      },
      {
        "addressExtra": null,
        "businessId": 1312729,
        "city": "Güstrow",
        "country": "DE",
        "googlePlaceId": "ChIJUW3dknw_rEcREDuJLJW5SxM",
        "id": 3180618,
        "identifier": "DE029042",
        "lat": 53.80944256,
        "lng": 12.19118604,
        "name": "ALDI Nord",
        "province": "Mecklenburg-Vorpommern",
        "streetAndNumber": "Ebereschenweg 1e",
        "zip": "18273"
      },
      {
        "addressExtra": null,
        "businessId": 1312729,
        "city": "Leopoldshöhe",
        "country": "DE",
        "googlePlaceId": "ChIJIyt2y5E_ukcRzsEkchcDqbE",
        "id": 3180619,
        "identifier": "DE005006",
        "lat": 52.0110937,
        "lng": 8.7003547,
        "name": "ALDI Nord",
        "province": "Nordrhein-Westfalen",
        "streetAndNumber": "Bürgermeister-Brinkmann-Weg 4",
        "zip": "33818"
      },
      {
        "addressExtra": null,
        "businessId": 1312729,
        "city": "Fronhausen",
        "country": "DE",
        "googlePlaceId": "ChIJHeVzZGBgvEcRePqw3dsGN6I",
        "id": 3180620,
        "identifier": "DE013069",
        "lat": 50.70921196,
        "lng": 8.69613914,
        "name": "ALDI Nord",
        "province": "Hessen",
        "streetAndNumber": "Im Boden 2-4",
        "zip": "35112"
      },
      {
        "addressExtra": null,
        "businessId": 1312729,
        "city": "Rostock",
        "country": "DE",
        "googlePlaceId": "ChIJffEWgSJWrEcRCEkomF2INqg",
        "id": 3180621,
        "identifier": "DE029055",
        "lat": 54.16931786,
        "lng": 12.08346452,
        "name": "ALDI Nord",
        "province": "Mecklenburg-Vorpommern",
        "streetAndNumber": "Lortzingstraße 19 a",
        "zip": "18119"
      },
      {
        "addressExtra": null,
        "businessId": 1312729,
        "city": "Eisenberg",
        "country": "DE",
        "googlePlaceId": "ChIJxZASGLa5pkcRVfRjd1OPA68",
        "id": 3180623,
        "identifier": "DE031079",
        "lat": 50.96363969,
        "lng": 11.88784072,
        "name": "ALDI Nord",
        "province": "Thüringen",
        "streetAndNumber": "Saasaer Straße 1",
        "zip": "07607"
      },
      {
        "addressExtra": null,
        "businessId": 1312729,
        "city": "Eilenburg",
        "country": "DE",
        "googlePlaceId": "ChIJ9TqVKBBTpkcRz6ApnFvc_u0",
        "id": 3180624,
        "identifier": "DE021048",
        "lat": 51.4575873,
        "lng": 12.6136968,
        "name": "ALDI Nord",
        "province": "Sachsen",
        "streetAndNumber": "Bergstraße 32",
        "zip": "04838"
      },
      {
        "addressExtra": null,
        "businessId": 1312729,
        "city": "Warendorf",
        "country": "DE",
        "googlePlaceId": "ChIJ19QxPDSQuUcR0jo77IkjpRQ",
        "id": 3180625,
        "identifier": "DE005066",
        "lat": 51.9571058,
        "lng": 8.0058878,
        "name": "ALDI Nord",
        "province": "Nordrhein-Westfalen",
        "streetAndNumber": "Sassenberger Straße 57",
        "zip": "48231"
      },
      {
        "addressExtra": null,
        "businessId": 1312729,
        "city": "Paderborn",
        "country": "DE",
        "googlePlaceId": "ChIJn6JnZZhLukcRfZbAUKVw1eg",
        "id": 3180627,
        "identifier": "DE005007",
        "lat": 51.74887443,
        "lng": 8.7186386,
        "name": "ALDI Nord",
        "province": "Nordrhein-Westfalen",
        "streetAndNumber": "Hatzfelder Straße 22-24",
        "zip": "33104"
      },
      {
        "addressExtra": null,
        "businessId": 1312729,
        "city": "Hildesheim",
        "country": "DE",
        "googlePlaceId": "ChIJ5eWxvG2vukcRm2G-5K_ZQq8",
        "id": 3180628,
        "identifier": "DE006105",
        "lat": 52.1678752,
        "lng": 9.9341414,
        "name": "ALDI Nord",
        "province": "Niedersachsen",
        "streetAndNumber": "Ernst-Morsch-Straße 9",
        "zip": "31137"
      },
      {
        "addressExtra": null,
        "businessId": 1312729,
        "city": "Nordenham",
        "country": "DE",
        "googlePlaceId": "ChIJqQkh--i5tkcRzQsYjldlyoY",
        "id": 3180629,
        "identifier": "DE015005",
        "lat": 53.50384043,
        "lng": 8.47945814,
        "name": "ALDI Nord",
        "province": "Niedersachsen",
        "streetAndNumber": "Atenser Allee 142",
        "zip": "26954"
      },
      {
        "addressExtra": null,
        "businessId": 1312729,
        "city": "Castrop-Rauxel",
        "country": "DE",
        "googlePlaceId": "ChIJdxaMb8IduUcR9v3ugH6zSGI",
        "id": 3180631,
        "identifier": "DE032054",
        "lat": 51.55526597,
        "lng": 7.292982,
        "name": "ALDI Nord",
        "province": "Nordrhein-Westfalen",
        "streetAndNumber": "Am Landwehrbach 7",
        "zip": "44575"
      },
      {
        "addressExtra": null,
        "businessId": 1312729,
        "city": "Chemnitz",
        "country": "DE",
        "googlePlaceId": "ChIJT7jGaiJHp0cRq5GiDrJobdA",
        "id": 3180632,
        "identifier": "DE036095",
        "lat": 50.86404029,
        "lng": 12.902457,
        "name": "ALDI Nord",
        "province": "Sachsen",
        "streetAndNumber": "Bornaer Straße 148",
        "zip": "09114"
      },
      {
        "addressExtra": null,
        "businessId": 1312729,
        "city": "Prenzlau",
        "country": "DE",
        "googlePlaceId": "ChIJa8Iai7QnqkcRBt_yJZlYL3c",
        "id": 3180633,
        "identifier": "DE024026",
        "lat": 53.32000863,
        "lng": 13.8572327,
        "name": "ALDI Nord",
        "province": "Brandenburg",
        "streetAndNumber": "Kietzstraße 20",
        "zip": "17291"
      },
      {
        "addressExtra": null,
        "businessId": 1312729,
        "city": "Edewecht",
        "country": "DE",
        "googlePlaceId": "ChIJIcFfo37itkcRtaUxlkf0Ydk",
        "id": 3180634,
        "identifier": "DE015046",
        "lat": 53.1279507,
        "lng": 7.9810755,
        "name": "ALDI Nord",
        "province": "Niedersachsen",
        "streetAndNumber": "Bahnhofstraße 5",
        "zip": "26188"
      },
      {
        "addressExtra": null,
        "businessId": 1312729,
        "city": "Bad Oldesloe",
        "country": "DE",
        "googlePlaceId": "ChIJo4QUsgMaskcR6GX6Bia8Ldg",
        "id": 3180635,
        "identifier": "DE016068",
        "lat": 53.8005859,
        "lng": 10.4021525,
        "name": "ALDI Nord",
        "province": "Schleswig-Holstein",
        "streetAndNumber": "Lily-Braun-Straße 18-22",
        "zip": "23843"
      },
      {
        "addressExtra": null,
        "businessId": 1312729,
        "city": "Dessau-Roßlau",
        "country": "DE",
        "googlePlaceId": "ChIJVaLnJLcWpkcR_xo5eC2BxYw",
        "id": 3180636,
        "identifier": "DE026065",
        "lat": 51.8245574,
        "lng": 12.2424057,
        "name": "ALDI Nord",
        "province": "Sachsen-Anhalt",
        "streetAndNumber": "Franzstraße 159",
        "zip": "06842"
      },
      {
        "addressExtra": null,
        "businessId": 1312729,
        "city": "Nordwalde",
        "country": "DE",
        "googlePlaceId": "ChIJ2SeUULO1uUcRsN010Py76tU",
        "id": 3180637,
        "identifier": "DE032118",
        "lat": 52.08153237,
        "lng": 7.47672886,
        "name": "ALDI Nord",
        "province": "Nordrhein-Westfalen",
        "streetAndNumber": "Felix-Fraling-Straße 16",
        "zip": "48356"
      },
      {
        "addressExtra": null,
        "businessId": 1312729,
        "city": "Berlin",
        "country": "DE",
        "googlePlaceId": "ChIJKyBDxyFWqEcRKG3oEcL8ILs",
        "id": 3180638,
        "identifier": "DE020027",
        "lat": 52.5460448,
        "lng": 13.1778643,
        "name": "ALDI Nord",
        "province": "Berlin",
        "streetAndNumber": "Salchendorfer Weg 1",
        "zip": "13583"
      },
      {
        "addressExtra": null,
        "businessId": 1312729,
        "city": "Löhne",
        "country": "DE",
        "googlePlaceId": "ChIJsQJuuIUSukcRQh2HCQxbK8g",
        "id": 3180639,
        "identifier": "DE005114",
        "lat": 52.20023465,
        "lng": 8.72834831,
        "name": "ALDI Nord",
        "province": "Nordrhein-Westfalen",
        "streetAndNumber": "Albert-Schweitzer-Straße 37",
        "zip": "32584"
      },
      {
        "addressExtra": null,
        "businessId": 1312729,
        "city": "Coesfeld",
        "country": "DE",
        "googlePlaceId": "ChIJDy_f62ZQuEcRcJr1gsW5ASY",
        "id": 3180640,
        "identifier": "DE001056",
        "lat": 51.93754234,
        "lng": 7.16669314,
        "name": "ALDI Nord",
        "province": "Nordrhein-Westfalen",
        "streetAndNumber": "Hansestraße 6",
        "zip": "48653"
      },
      {
        "addressExtra": null,
        "businessId": 1312729,
        "city": "Radebeul",
        "country": "DE",
        "googlePlaceId": "ChIJtTnUig7RCUcR3iFI2KdRZcY",
        "id": 3180641,
        "identifier": "DE036042",
        "lat": 51.1133596,
        "lng": 13.6128824,
        "name": "ALDI Nord",
        "province": "Sachsen",
        "streetAndNumber": "Weinböhlaer Straße 9",
        "zip": "01445"
      },
      {
        "addressExtra": null,
        "businessId": 1312729,
        "city": "Bad Bramstedt",
        "country": "DE",
        "googlePlaceId": "ChIJYz50pQ4zskcRg-htpBA-tS4",
        "id": 3180644,
        "identifier": "DE004042",
        "lat": 53.91195315,
        "lng": 9.88045278,
        "name": "ALDI Nord",
        "province": "Schleswig-Holstein",
        "streetAndNumber": "Hamburger Straße 36-38",
        "zip": "21481"
      },
      {
        "addressExtra": null,
        "businessId": 1312729,
        "city": "Kiel",
        "country": "DE",
        "googlePlaceId": "ChIJbdJh06xVskcRmTMLU8MGjxw",
        "id": 3180645,
        "identifier": "DE004026",
        "lat": 54.3237325,
        "lng": 10.054179,
        "name": "ALDI Nord",
        "province": "Schleswig-Holstein",
        "streetAndNumber": "Kurt-Schumacher-Platz 4",
        "zip": "24109"
      },
      {
        "addressExtra": null,
        "businessId": 1312729,
        "city": "Bremen",
        "country": "DE",
        "googlePlaceId": "ChIJt_ghUmcpsUcRhKPhTXdGTic",
        "id": 3180646,
        "identifier": "DE007043",
        "lat": 53.13475753,
        "lng": 8.73703189,
        "name": "ALDI Nord",
        "province": "Bremen",
        "streetAndNumber": "Ritterhuder Heerstraße 6",
        "zip": "28239"
      },
      {
        "addressExtra": null,
        "businessId": 1312729,
        "city": "Hildesheim",
        "country": "DE",
        "googlePlaceId": "ChIJdV_gZhCuukcRjMMEuZ6b1NY",
        "id": 3180647,
        "identifier": "DE006109",
        "lat": 52.12056765,
        "lng": 9.98976009,
        "name": "ALDI Nord",
        "province": "Niedersachsen",
        "streetAndNumber": "In der Schratwanne 36",
        "zip": "31141"
      },
      {
        "addressExtra": null,
        "businessId": 1312729,
        "city": "Berlin",
        "country": "DE",
        "googlePlaceId": "ChIJNQZis2VQqEcRqjk7Uoi1ZwM",
        "id": 3180648,
        "identifier": "DE020088",
        "lat": 52.4791785,
        "lng": 13.3350602,
        "name": "ALDI Nord",
        "province": "Berlin",
        "streetAndNumber": "Wexstraße 16-18",
        "zip": "10715"
      },
      {
        "addressExtra": null,
        "businessId": 1312729,
        "city": "Halstenbek",
        "country": "DE",
        "googlePlaceId": "ChIJN9Y3_SiBsUcRLNULy90iLt0",
        "id": 3180649,
        "identifier": "DE016044",
        "lat": 53.63460435,
        "lng": 9.83795859,
        "name": "ALDI Nord",
        "province": "Schleswig-Holstein",
        "streetAndNumber": "Hartkirchener Chaussee 14",
        "zip": "25469"
      },
      {
        "addressExtra": null,
        "businessId": 1312729,
        "city": "Lübeck",
        "country": "DE",
        "googlePlaceId": "ChIJ78IGPQ0MskcRQ_Mvd-RSjv4",
        "id": 3180650,
        "identifier": "DE016123",
        "lat": 53.89291003,
        "lng": 10.6672843,
        "name": "ALDI Nord",
        "province": "Schleswig-Holstein",
        "streetAndNumber": "Friedhofsallee 144",
        "zip": "23554"
      },
      {
        "addressExtra": null,
        "businessId": 1312729,
        "city": "Hasbergen",
        "country": "DE",
        "googlePlaceId": "ChIJK-xL2JLouUcRQJl087Fq924",
        "id": 3180651,
        "identifier": "DE025071",
        "lat": 52.2423394,
        "lng": 7.9617522,
        "name": "ALDI Nord",
        "province": "Niedersachsen",
        "streetAndNumber": "Feuerwache 16",
        "zip": "49205"
      },
      {
        "addressExtra": null,
        "businessId": 1312729,
        "city": "Delbrück",
        "country": "DE",
        "googlePlaceId": "ChIJCzzTC0Q0ukcRSTprDmBzonA",
        "id": 3180652,
        "identifier": "DE005009",
        "lat": 51.7670061,
        "lng": 8.5626948,
        "name": "ALDI Nord",
        "province": "Nordrhein-Westfalen",
        "streetAndNumber": "Brenkenkamp 10",
        "zip": "33129"
      },
      {
        "addressExtra": null,
        "businessId": 1312729,
        "city": "Bersenbrück",
        "country": "DE",
        "googlePlaceId": "ChIJ4fYsVgNnt0cRbNM3vyaWZXs",
        "id": 3180653,
        "identifier": "DE025042",
        "lat": 52.54998774,
        "lng": 7.94977822,
        "name": "ALDI Nord",
        "province": "Niedersachsen",
        "streetAndNumber": "Bramscher Straße 46-48",
        "zip": "49593"
      },
      {
        "addressExtra": null,
        "businessId": 1312729,
        "city": "Wentorf bei Hamburg",
        "country": "DE",
        "googlePlaceId": "ChIJrQ0YSRTysUcRNxg-cz0iM5A",
        "id": 3180654,
        "identifier": "DE003067",
        "lat": 53.48939545,
        "lng": 10.25343795,
        "name": "ALDI Nord",
        "province": "Schleswig-Holstein",
        "streetAndNumber": "Am Casinopark 14",
        "zip": "21465"
      },
      {
        "addressExtra": null,
        "businessId": 1312729,
        "city": "Klostermansfeld",
        "country": "DE",
        "googlePlaceId": "ChIJ1-dxO0vOpUcRycZCc4_P7Mk",
        "id": 3180655,
        "identifier": "DE026082",
        "lat": 51.58477063,
        "lng": 11.5025368,
        "name": "ALDI Nord",
        "province": "Sachsen-Anhalt",
        "streetAndNumber": "Am Vogts Garten 2a",
        "zip": "06308"
      },
      {
        "addressExtra": null,
        "businessId": 1312729,
        "city": "Rinteln",
        "country": "DE",
        "googlePlaceId": "ChIJVyJLLTl7ukcRB7eiVNU814M",
        "id": 3180656,
        "identifier": "DE005098",
        "lat": 52.19822114,
        "lng": 9.08190909,
        "name": "ALDI Nord",
        "province": "Niedersachsen",
        "streetAndNumber": "Große Tonkuhle 3",
        "zip": "31737"
      },
      {
        "addressExtra": null,
        "businessId": 1312729,
        "city": "Wittstock",
        "country": "DE",
        "googlePlaceId": "ChIJDzI8aU5LqUcRJX2M7jv2bs8",
        "id": 3180657,
        "identifier": "DE020079",
        "lat": 53.15623107,
        "lng": 12.47946394,
        "name": "ALDI Nord",
        "province": "Brandenburg",
        "streetAndNumber": "Papenbrucher Chaussee 2",
        "zip": "16909"
      },
      {
        "addressExtra": null,
        "businessId": 1312729,
        "city": "Hamm",
        "country": "DE",
        "googlePlaceId": "ChIJI_lwyah0uUcRgmVnW0cgsvo",
        "id": 3180658,
        "identifier": "DE013012",
        "lat": 51.6874684,
        "lng": 7.7461024,
        "name": "ALDI Nord",
        "province": "Nordrhein-Westfalen",
        "streetAndNumber": "Am Dahlhof 2",
        "zip": "59075"
      },
      {
        "addressExtra": null,
        "businessId": 1312729,
        "city": "Sandesneben",
        "country": "DE",
        "googlePlaceId": "ChIJHeXlxEADskcRTMlmqOYCfCc",
        "id": 3180659,
        "identifier": "DE016058",
        "lat": 53.69168547,
        "lng": 10.5024103,
        "name": "ALDI Nord",
        "province": "Schleswig-Holstein",
        "streetAndNumber": "Hauptstraße 1",
        "zip": "23898"
      },
      {
        "addressExtra": null,
        "businessId": 1312729,
        "city": "Zeulenroda-Triebes",
        "country": "DE",
        "googlePlaceId": "ChIJ3WyX28UzoUcRv1CwdY_d7s0",
        "id": 3180660,
        "identifier": "DE031034",
        "lat": 50.65936819,
        "lng": 11.99452871,
        "name": "ALDI Nord",
        "province": "Thüringen",
        "streetAndNumber": "Meinersdorfer Straße 8",
        "zip": "07937"
      },
      {
        "addressExtra": null,
        "businessId": 1312729,
        "city": "Gelsenkirchen",
        "country": "DE",
        "googlePlaceId": "ChIJsdx-sWvmuEcRxJc5lmqA0CA",
        "id": 3180661,
        "identifier": "DE001064",
        "lat": 51.53701764,
        "lng": 7.0724544,
        "name": "ALDI Nord",
        "province": "Nordrhein-Westfalen",
        "streetAndNumber": "Kurt-Schumacher-Straße 192",
        "zip": "45881"
      },
      {
        "addressExtra": null,
        "businessId": 1312729,
        "city": "Hamburg",
        "country": "DE",
        "googlePlaceId": "ChIJX6eEd7SPsUcRa5CXzESWapU",
        "id": 3180662,
        "identifier": "DE003023",
        "lat": 53.5199083,
        "lng": 9.98475914,
        "name": "ALDI Nord",
        "province": "Hamburg",
        "streetAndNumber": "Ernst-August-Stieg 7",
        "zip": "21107"
      },
      {
        "addressExtra": null,
        "businessId": 1312729,
        "city": "Rödinghausen",
        "country": "DE",
        "googlePlaceId": "ChIJK3CxlmsbukcRQa_E4zDcn60",
        "id": 3180663,
        "identifier": "DE005095",
        "lat": 52.20273611,
        "lng": 8.46153069,
        "name": "ALDI Nord",
        "province": "Nordrhein-Westfalen",
        "streetAndNumber": "Bruchstraße 193",
        "zip": "32289"
      },
      {
        "addressExtra": null,
        "businessId": 1312729,
        "city": "Quickborn",
        "country": "DE",
        "googlePlaceId": "ChIJocM-tW8pskcR1xy-9zunQN4",
        "id": 3180664,
        "identifier": "DE016125",
        "lat": 53.7308207,
        "lng": 9.90431466,
        "name": "ALDI Nord",
        "province": "Schleswig-Holstein",
        "streetAndNumber": "Bahnhofstraße 94",
        "zip": "25451"
      },
      {
        "addressExtra": null,
        "businessId": 1312729,
        "city": "Bremen",
        "country": "DE",
        "googlePlaceId": "ChIJlUF7AEnTtkcRXJUq9m75550",
        "id": 3180665,
        "identifier": "DE007027",
        "lat": 53.18439802,
        "lng": 8.61825874,
        "name": "ALDI Nord",
        "province": "Bremen",
        "streetAndNumber": "Hammersbecker Straße 87",
        "zip": "28755"
      },
      {
        "addressExtra": null,
        "businessId": 1312729,
        "city": "Reinholdshain",
        "country": "DE",
        "googlePlaceId": "ChIJydO8vB_CCUcRQaAq0gwGv6o",
        "id": 3180666,
        "identifier": "DE036001",
        "lat": 50.89679543,
        "lng": 13.6890842,
        "name": "ALDI Nord",
        "province": "Sachsen",
        "streetAndNumber": "Gewerbering 5",
        "zip": "01744"
      },
      {
        "addressExtra": null,
        "businessId": 1312729,
        "city": "Wickede",
        "country": "DE",
        "googlePlaceId": "ChIJESSqe8houUcRI43d4XlFAZs",
        "id": 3180667,
        "identifier": "DE013019",
        "lat": 51.4933078,
        "lng": 7.8650981,
        "name": "ALDI Nord",
        "province": "Nordrhein-Westfalen",
        "streetAndNumber": "Christian-Liebrecht-Straße 3a",
        "zip": "58739"
      },
      {
        "addressExtra": null,
        "businessId": 1312729,
        "city": "Göttingen",
        "country": "DE",
        "googlePlaceId": "ChIJ3cwKcV0ru0cR4qfSO2y0i-g",
        "id": 3180669,
        "identifier": "DE010074",
        "lat": 51.5301446,
        "lng": 9.88106912,
        "name": "ALDI Nord",
        "province": "Niedersachsen",
        "streetAndNumber": "Am Kauf Park 2",
        "zip": "37079"
      },
      {
        "addressExtra": null,
        "businessId": 1312729,
        "city": "Lohfelden",
        "country": "DE",
        "googlePlaceId": "ChIJJ8Z9Z4NHu0cRW5tmfCpYexA",
        "id": 3180670,
        "identifier": "DE010017",
        "lat": 51.2849733,
        "lng": 9.5464798,
        "name": "ALDI Nord",
        "province": "Hessen",
        "streetAndNumber": "Faustmühlenweg 30",
        "zip": "34253"
      },
      {
        "addressExtra": null,
        "businessId": 1312729,
        "city": "Bramsche",
        "country": "DE",
        "googlePlaceId": "ChIJQzjerLLhuUcR_YV77M9Eq10",
        "id": 3180671,
        "identifier": "DE025045",
        "lat": 52.40133521,
        "lng": 7.99064809,
        "name": "ALDI Nord",
        "province": "Niedersachsen",
        "streetAndNumber": "Meyers Tannen 8",
        "zip": "49565"
      },
      {
        "addressExtra": null,
        "businessId": 1312729,
        "city": "Herzlake",
        "country": "DE",
        "googlePlaceId": "ChIJX7rKulp2t0cRx25qGwleqx0",
        "id": 3180673,
        "identifier": "DE025060",
        "lat": 52.6846078,
        "lng": 7.6079173,
        "name": "ALDI Nord",
        "province": "Niedersachsen",
        "streetAndNumber": "Löninger Straße 10",
        "zip": "49770"
      },
      {
        "addressExtra": null,
        "businessId": 1312729,
        "city": "Gotha",
        "country": "DE",
        "googlePlaceId": "ChIJ-7nkmR58pEcR2pRD1JIscqk",
        "id": 3180674,
        "identifier": "DE031056",
        "lat": 50.94544122,
        "lng": 10.68510694,
        "name": "ALDI Nord",
        "province": "Thüringen",
        "streetAndNumber": "Coburger Platz 2",
        "zip": "99867"
      },
      {
        "addressExtra": null,
        "businessId": 1312729,
        "city": "Hagen",
        "country": "DE",
        "googlePlaceId": "ChIJ64IFM5o8uUcR_Q33PvhCqV4",
        "id": 3180675,
        "identifier": "DE013081",
        "lat": 51.3692785,
        "lng": 7.4631779,
        "name": "ALDI Nord",
        "province": "Nordrhein-Westfalen",
        "streetAndNumber": "Zollstraße 1",
        "zip": "58089"
      },
      {
        "addressExtra": null,
        "businessId": 1312729,
        "city": "Satow",
        "country": "DE",
        "googlePlaceId": "ChIJEbdhVx5NrEcRfIFW5FG2TaY",
        "id": 3180676,
        "identifier": "DE029021",
        "lat": 53.98053366,
        "lng": 11.8757209,
        "name": "ALDI Nord",
        "province": "Mecklenburg-Vorpommern",
        "streetAndNumber": "Fleckebyer Straße 7",
        "zip": "18239"
      },
      {
        "addressExtra": null,
        "businessId": 1312729,
        "city": "Hage",
        "country": "DE",
        "googlePlaceId": "ChIJ8wlyZIcTtkcRikbxPNcVrI8",
        "id": 3180677,
        "identifier": "DE015050",
        "lat": 53.6021369,
        "lng": 7.2914526,
        "name": "ALDI Nord",
        "province": "Niedersachsen",
        "streetAndNumber": "Am Edenhof 1",
        "zip": "26524"
      },
      {
        "addressExtra": null,
        "businessId": 1312729,
        "city": "Springe",
        "country": "DE",
        "googlePlaceId": "ChIJ-V7_--abukcRuGSeZdU_TYw",
        "id": 3180678,
        "identifier": "DE006173",
        "lat": 52.212678,
        "lng": 9.570656,
        "name": "ALDI Nord",
        "province": "Niedersachsen",
        "streetAndNumber": "Osttangente 6",
        "zip": "31832"
      },
      {
        "addressExtra": null,
        "businessId": 1312729,
        "city": "Borgholzhausen",
        "country": "DE",
        "googlePlaceId": "ChIJSSBjINgfukcR2WUrTTBWSI4",
        "id": 3180680,
        "identifier": "DE005027",
        "lat": 52.10019542,
        "lng": 8.29666861,
        "name": "ALDI Nord",
        "province": "Nordrhein-Westfalen",
        "streetAndNumber": "Bahnhofstraße 19",
        "zip": "33829"
      },
      {
        "addressExtra": null,
        "businessId": 1312729,
        "city": "Gelsenkirchen",
        "country": "DE",
        "googlePlaceId": "ChIJ4RjliQHnuEcRcYb_EorGB7c",
        "id": 3180681,
        "identifier": "DE001020",
        "lat": 51.508402,
        "lng": 7.0952476,
        "name": "ALDI Nord",
        "province": "Nordrhein-Westfalen",
        "streetAndNumber": "Klosterstraße",
        "zip": "45879"
      },
      {
        "addressExtra": null,
        "businessId": 1312729,
        "city": "Münster",
        "country": "DE",
        "googlePlaceId": "ChIJ5Xq27bykuUcRhMjM-XIvEu8",
        "id": 3180682,
        "identifier": "DE032123",
        "lat": 51.92385407,
        "lng": 7.6717098,
        "name": "ALDI Nord",
        "province": "Nordrhein-Westfalen",
        "streetAndNumber": "Albersloher Weg 550",
        "zip": "48167"
      },
      {
        "addressExtra": null,
        "businessId": 1312729,
        "city": "Lengerich",
        "country": "DE",
        "googlePlaceId": "ChIJvS6HCCLCuUcRcBo6rkL8iRo",
        "id": 3180683,
        "identifier": "DE025080",
        "lat": 52.19255931,
        "lng": 7.84621786,
        "name": "ALDI Nord",
        "province": "Nordrhein-Westfalen",
        "streetAndNumber": "Tecklenburger Straße 12",
        "zip": "49525"
      },
      {
        "addressExtra": null,
        "businessId": 1312729,
        "city": "Dillenburg",
        "country": "DE",
        "googlePlaceId": "ChIJQbC4k2YVvEcRdxG3qzwylBQ",
        "id": 3180684,
        "identifier": "DE002083",
        "lat": 50.72446051,
        "lng": 8.28872306,
        "name": "ALDI Nord",
        "province": "Hessen",
        "streetAndNumber": "Rolfesstraße 3",
        "zip": "35683"
      },
      {
        "addressExtra": null,
        "businessId": 1312729,
        "city": "Hamburg",
        "country": "DE",
        "googlePlaceId": "ChIJmzi8J3WGsUcRZsZhBxEo_28",
        "id": 3180685,
        "identifier": "DE016017",
        "lat": 53.58824736,
        "lng": 9.9224258,
        "name": "ALDI Nord",
        "province": "Hamburg",
        "streetAndNumber": "Randstraße 77",
        "zip": "22525"
      },
      {
        "addressExtra": null,
        "businessId": 1312729,
        "city": "Neustadt in Holstein",
        "country": "DE",
        "googlePlaceId": "ChIJGToksJ53skcRDqmSwQl3OCg",
        "id": 3180686,
        "identifier": "DE016158",
        "lat": 54.10482915,
        "lng": 10.83493871,
        "name": "ALDI Nord",
        "province": "Schleswig-Holstein",
        "streetAndNumber": "Rettiner Weg 77",
        "zip": "23730"
      },
      {
        "addressExtra": null,
        "businessId": 1312729,
        "city": "Freiberg",
        "country": "DE",
        "googlePlaceId": "ChIJFWXQ5_Zfp0cR9La-PvmFGmo",
        "id": 3180688,
        "identifier": "DE036006",
        "lat": 50.90474543,
        "lng": 13.33720085,
        "name": "ALDI Nord",
        "province": "Sachsen",
        "streetAndNumber": "Olbernhauer Straße 72",
        "zip": "09599"
      },
      {
        "addressExtra": null,
        "businessId": 1312729,
        "city": "Burg Stargard",
        "country": "DE",
        "googlePlaceId": "ChIJnzO9zCHbq0cRvaJEAQzQK1g",
        "id": 3180690,
        "identifier": "DE029033",
        "lat": 53.49449447,
        "lng": 13.31886761,
        "name": "ALDI Nord",
        "province": "Mecklenburg-Vorpommern",
        "streetAndNumber": "Dewitzer Chaussee 11",
        "zip": "17094"
      },
      {
        "addressExtra": null,
        "businessId": 1312729,
        "city": "Wuppertal",
        "country": "DE",
        "googlePlaceId": "ChIJ5Z5I9P0nuUcRO_5A7c7bXvI",
        "id": 3180691,
        "identifier": "DE002110",
        "lat": 51.29402332,
        "lng": 7.20127134,
        "name": "ALDI Nord",
        "province": "Nordrhein-Westfalen",
        "streetAndNumber": "Märkische Straße 277",
        "zip": "42281"
      },
      {
        "addressExtra": null,
        "businessId": 1312729,
        "city": "Bochum",
        "country": "DE",
        "googlePlaceId": "ChIJTeEO9kAeuUcRAzAt5M9UAck",
        "id": 3180692,
        "identifier": "DE001003",
        "lat": 51.5183133,
        "lng": 7.2811314,
        "name": "ALDI Nord",
        "province": "Nordrhein-Westfalen",
        "streetAndNumber": "Amtmann-Ibing-Straße 9",
        "zip": "44805"
      },
      {
        "addressExtra": null,
        "businessId": 1312729,
        "city": "Bad Hersfeld",
        "country": "DE",
        "googlePlaceId": "ChIJQwHR3_JUo0cRIYPJXmJHEto",
        "id": 3180693,
        "identifier": "DE010011",
        "lat": 50.87984184,
        "lng": 9.68786295,
        "name": "ALDI Nord",
        "province": "Hessen",
        "streetAndNumber": "Homberger Straße 142",
        "zip": "36251"
      },
      {
        "addressExtra": null,
        "businessId": 1312729,
        "city": "Salzwedel",
        "country": "DE",
        "googlePlaceId": "ChIJr-ua1SWtr0cRci6H7mEzVuo",
        "id": 3180694,
        "identifier": "DE026030",
        "lat": 52.8521206,
        "lng": 11.1657421,
        "name": "ALDI Nord",
        "province": "Sachsen-Anhalt",
        "streetAndNumber": "Schillerstraße 11",
        "zip": "29410"
      },
      {
        "addressExtra": null,
        "businessId": 1312729,
        "city": "Freiberg",
        "country": "DE",
        "googlePlaceId": "ChIJgXfYpAngCUcRnDyXmyOR9B8",
        "id": 3180695,
        "identifier": "DE036059",
        "lat": 50.9148606,
        "lng": 13.36585547,
        "name": "ALDI Nord",
        "province": "Sachsen",
        "streetAndNumber": "Dresdner Str. 31d",
        "zip": "09599"
      },
      {
        "addressExtra": null,
        "businessId": 1312729,
        "city": "Röbel",
        "country": "DE",
        "googlePlaceId": "ChIJY-DFKCNVqUcRIymwUAiR6ZA",
        "id": 3180696,
        "identifier": "DE029073",
        "lat": 53.38317592,
        "lng": 12.60599299,
        "name": "ALDI Nord",
        "province": "Mecklenburg-Vorpommern",
        "streetAndNumber": "Am Hafen 11",
        "zip": "17207"
      },
      {
        "addressExtra": null,
        "businessId": 1312729,
        "city": "Rotenburg (Wümme)",
        "country": "DE",
        "googlePlaceId": "ChIJR-JoFxwEsUcRRtuMNKMv2NE",
        "id": 3180697,
        "identifier": "DE007069",
        "lat": 53.1202067,
        "lng": 9.4221031,
        "name": "ALDI Nord",
        "province": "Niedersachsen",
        "streetAndNumber": "Waldweg 1-5",
        "zip": "27356"
      },
      {
        "addressExtra": null,
        "businessId": 1312729,
        "city": "Olbernhau",
        "country": "DE",
        "googlePlaceId": "ChIJpbD3EkX5CUcR46_AKFPWwZk",
        "id": 3180698,
        "identifier": "DE036043",
        "lat": 50.65132667,
        "lng": 13.35100647,
        "name": "ALDI Nord",
        "province": "Sachsen",
        "streetAndNumber": "Dörfelstraße 4",
        "zip": "09526"
      },
      {
        "addressExtra": null,
        "businessId": 1312729,
        "city": "Magdeburg",
        "country": "DE",
        "googlePlaceId": "ChIJBQ9JsJlfr0cRcGDZS7hXYYQ",
        "id": 3180699,
        "identifier": "DE026049",
        "lat": 52.1507712,
        "lng": 11.5873697,
        "name": "ALDI Nord",
        "province": "Sachsen-Anhalt",
        "streetAndNumber": "Olvenstedter Scheid 52",
        "zip": "39130"
      },
      {
        "addressExtra": null,
        "businessId": 1312729,
        "city": "Weyhe",
        "country": "DE",
        "googlePlaceId": "ChIJlzjgTILZsEcR6_opd4KN0x4",
        "id": 3180700,
        "identifier": "DE007049",
        "lat": 52.9816797,
        "lng": 8.8515113,
        "name": "ALDI Nord",
        "province": "Niedersachsen",
        "streetAndNumber": "Lahauser Straße 2 a",
        "zip": "28844"
      },
      {
        "addressExtra": null,
        "businessId": 1312729,
        "city": "Gladbeck",
        "country": "DE",
        "googlePlaceId": "ChIJm7elESLvuEcR-spaUgWkeGg",
        "id": 3180701,
        "identifier": "DE001044",
        "lat": 51.57912194,
        "lng": 7.00537161,
        "name": "ALDI Nord",
        "province": "Nordrhein-Westfalen",
        "streetAndNumber": "Buersche Straße 83",
        "zip": "45964"
      },
      {
        "addressExtra": null,
        "businessId": 1312729,
        "city": "Kirchhundem",
        "country": "DE",
        "googlePlaceId": "ChIJL7SslMr4u0cRGZKkfkbwmzM",
        "id": 3180702,
        "identifier": "DE002105",
        "lat": 51.08850181,
        "lng": 8.10705667,
        "name": "ALDI Nord",
        "province": "Nordrhein-Westfalen",
        "streetAndNumber": "Herrntroper Straße 76",
        "zip": "57399"
      },
      {
        "addressExtra": null,
        "businessId": 1312729,
        "city": "Krummhörn",
        "country": "DE",
        "googlePlaceId": "ChIJ-9SoOl07tkcRpUuQoeJBzFw",
        "id": 3180703,
        "identifier": "DE015065",
        "lat": 53.4286691,
        "lng": 7.1090059,
        "name": "ALDI Nord",
        "province": "Niedersachsen",
        "streetAndNumber": "Handelsstraße 2",
        "zip": "26736"
      },
      {
        "addressExtra": null,
        "businessId": 1312729,
        "city": "Bad Emstal",
        "country": "DE",
        "googlePlaceId": "ChIJc_6BUexru0cRVWQAOZ48r_o",
        "id": 3180704,
        "identifier": "DE010068",
        "lat": 51.24916819,
        "lng": 9.2695061,
        "name": "ALDI Nord",
        "province": "Hessen",
        "streetAndNumber": "Kasseler Straße 96",
        "zip": "34308"
      },
      {
        "addressExtra": null,
        "businessId": 1312729,
        "city": "Quakenbrück",
        "country": "DE",
        "googlePlaceId": "ChIJi4kqFZ1pt0cRebJKOMxvvlA",
        "id": 3180705,
        "identifier": "DE025038",
        "lat": 52.68157825,
        "lng": 7.95911198,
        "name": "ALDI Nord",
        "province": "Niedersachsen",
        "streetAndNumber": "Bremer Straße 4",
        "zip": "49610"
      },
      {
        "addressExtra": null,
        "businessId": 1312729,
        "city": "Kirchhain",
        "country": "DE",
        "googlePlaceId": "ChIJf5xlAkOPvEcRgzy_t3U_yQo",
        "id": 3180706,
        "identifier": "DE010025",
        "lat": 50.8259046,
        "lng": 8.91483473,
        "name": "ALDI Nord",
        "province": "Hessen",
        "streetAndNumber": "Frankfurter Straße 7",
        "zip": "35274"
      },
      {
        "addressExtra": null,
        "businessId": 1312729,
        "city": "Bornhöved",
        "country": "DE",
        "googlePlaceId": "ChIJJcmnsqJGskcR3CakkEtYcWQ",
        "id": 3180707,
        "identifier": "DE004099",
        "lat": 54.07600384,
        "lng": 10.22814512,
        "name": "ALDI Nord",
        "province": "Schleswig-Holstein",
        "streetAndNumber": "Kieler Tor 42",
        "zip": "24619"
      },
      {
        "addressExtra": null,
        "businessId": 1312729,
        "city": "Bielefeld",
        "country": "DE",
        "googlePlaceId": "ChIJ87kKUzMjukcRZpdZIjU9t80",
        "id": 3180708,
        "identifier": "DE005038",
        "lat": 51.99759873,
        "lng": 8.48734211,
        "name": "ALDI Nord",
        "province": "Nordrhein-Westfalen",
        "streetAndNumber": "Carl-Severing-Straße 85",
        "zip": "33649"
      },
      {
        "addressExtra": null,
        "businessId": 1312729,
        "city": "Bielefeld",
        "country": "DE",
        "googlePlaceId": "ChIJ06UTFps-ukcRQmgpCSTt93k",
        "id": 3180709,
        "identifier": "DE005044",
        "lat": 51.9925924,
        "lng": 8.6053429,
        "name": "ALDI Nord",
        "province": "Nordrhein-Westfalen",
        "streetAndNumber": "Oerlinghauser Straße 10",
        "zip": "33699"
      },
      {
        "addressExtra": null,
        "businessId": 1312729,
        "city": "Tellingstedt",
        "country": "DE",
        "googlePlaceId": "ChIJ2ajnp_CQs0cRJvzcq82_2ZA",
        "id": 3180710,
        "identifier": "DE004085",
        "lat": 54.2201454,
        "lng": 9.277938,
        "name": "ALDI Nord",
        "province": "Schleswig-Holstein",
        "streetAndNumber": "Hauptstraße 5 b",
        "zip": "25782"
      },
      {
        "addressExtra": null,
        "businessId": 1312729,
        "city": "Vechta",
        "country": "DE",
        "googlePlaceId": "ChIJl_7SvmxIt0cRIVVtGly1HU8",
        "id": 3180711,
        "identifier": "DE007013",
        "lat": 52.7349588,
        "lng": 8.2809314,
        "name": "ALDI Nord",
        "province": "Niedersachsen",
        "streetAndNumber": "Falkenweg 6a",
        "zip": "49377"
      },
      {
        "addressExtra": null,
        "businessId": 1312729,
        "city": "Twist",
        "country": "DE",
        "googlePlaceId": "ChIJk0P8-LDyt0cRTl9GXUBF4Ak",
        "id": 3180712,
        "identifier": "DE025043",
        "lat": 52.6483958,
        "lng": 7.0954649,
        "name": "ALDI Nord",
        "province": "Niedersachsen",
        "streetAndNumber": "Overbergstraße 18",
        "zip": "49767"
      },