Street,Postal Code,City,Latitude,Longitude
Reuterstraße 115,25436,Uetersen,53.6926235,9.6544977
An Pater und Nonne 3A,58642,Iserlohn,51.36524204,7.62058969
Teschenstraße 1,02977,Hoyerswerda,51.44023106,14.24712554
Ulsterstraße 6,36269,Philippsthal (Werra),50.83857,9.98963
Luetemannskamp 4,49838,Lengerich,52.55229378,7.53242827
Friedensstraße 8,02991,Lauta,51.44118267,14.10011008
Catharina-Müller-Straße 6,48149,Münster,51.97235481,7.61116241
Wiebeke-Kruse-Straße 5-7,25348,Glückstadt,53.79874666,9.43491984
Nordmeerstraße 100,23570,Lübeck,53.96303216,10.86055289
Emmerkertorstraße 28,34434,Borgentreich,51.575309,9.242948
Engelsbyer Str. 33,24943,Flensburg,54.79397548,9.47003511
Büssingstraße 1,38176,Wendeburg,52.3204726,10.3968216
Alverskirchener Straße 24,48351,Everswinkel,51.9240847,7.8396003
Limberger Straße 1,03044,Cottbus,51.78147171,14.31800658
Im Brink 8,26835,Hesel,53.299644,7.5935906
Gerichtstraße 2-3,13347,Berlin,52.5425014,13.3781087
Hauptstraße 15-19,57482,Wenden,50.9705628,7.8663597
Resser Straße 29,44653,Herne,51.5490198,7.1487976
Gerberstraße 1,25436,Uetersen,53.68076548,9.67150619
Vietmannsdorfer Straße 2,17268,Templin,53.1164552,13.49963251
Erlenring 9,35037,Marburg,50.80731506,8.77707304
Badstraße 2a,09669,Frankenberg,50.91288093,13.04399374
Tom-Mutters-Straße 9,35041,Marburg,50.8424782,8.7656605
Friesische Str. 156,24937,Flensburg,54.77897993,9.4154985
Dieselstraße 4,23738,Lensahn,54.21858624,10.89853895
Königstraße 56-57,14109,Berlin,52.4187553,13.1574867
Günnigfelder Straße 56-58,44866,Bochum,51.4955237,7.1458251
Galenstraße 35,13597,Berlin,52.5395818,13.197133
An der B 255 3,35756,Mittenaar,50.6981,8.4063034
Dratelnstraße 23-25,21109,Hamburg,53.5006612,9.9999308
Max-Liebermann-Straße 19F,04157,Leipzig,51.37558605,12.35986115
Waltgeristraße 93,32049,Herford,52.12676,8.68366
Carl-Schmäcke-Straße 29,15366,Neuenhagen,52.53520211557342,13.697029999475108
Franz-Julius-Hoeltz-Straße 3,06618,Naumburg (Saale),51.1487591,11.8241148
Am Ruthenstrom 2,25746,Wesseln,54.2077393,9.0859035
Karl-Marx-Straße 92-96,03172,Guben,51.95623356,14.7039429
Am Kreuzberg 69,08064,Zwickau,50.67302249,12.46410988
Zum Torfmoor 13,21423,Winsen,53.35196108,10.22136297
Wolfhager Straße 274,34130,Kassel,51.3318114,9.4559983
Max-Planck-Straße 1-7,25541,Brunsbüttel,53.89977788,9.125031
Am Stadtpark 24,26871,Papenburg,53.08095453,7.3899524
Weserstraße 80,26919,Brake (Unterweser),53.3329252,8.4598434
Bucher Weg 2,16356,Ahrensfelde,52.6051017,13.5246326
Grootkoppel 5-7,23566,Lübeck,53.8711877,10.7447079
Saarbrücker Straße 1,06188,Landsberg,51.512674,12.052029
Stendaler Straße 89,39638,Gardelegen,52.52934166,11.41130993
Hans-Koch-Ring 4,21493,Schwarzenbek,53.5134201,10.49496
Pritzwalker Straße 46 b,16866,Kyritz,52.9532584,12.3987554
Am Galgenberg 1,21769,Lamstedt,53.624838,9.0900287
Prager Platz 1-3,10779,Berlin,52.49342969,13.33238719
Schloßstraße 4-5,12163,Berlin,52.46401428,13.32669759
Knippers Kohlenhof 3,49751,Sögel,52.83883802,7.52176599
Zepernicker Straße 10,13125,Berlin,52.64054701,13.51463172
Zwischen den Kreiseln 10,21039,Börnsen,53.4865517,10.2886513
Luruper Hauptstraße 79,22547,Hamburg,53.5866336,9.87771602
Bohmter Straße 64,49074,Osnabrück,52.28087917,8.06652259
Am Busbahnhof 1,39435,Egeln,51.9439842,11.4286494
Schöntaler Straße 44b,58300,Wetter (Ruhr),51.38021176,7.39196344
Lübbecker Straße 159 A,32584,Löhne-Mennighüffen,52.2199435,8.70568735
Mittelweg 105,26954,Nordenham,53.47737185,8.47092155
Theaterstraße 7,09111,Chemnitz,50.83504367,12.9194772
Bräuckenstraße 83,58511,Lüdenscheid,51.21752522,7.65380807
Johann-Specht-Straße 5 A,23701,Eutin,54.1276955,10.6222494
Kreuzgraben 5,99974,Mühlhausen,51.2119604,10.4633884
Weserstraße 17,32545,Bad Oeynhausen,52.197686,8.811301
Iltener Straße 11-15,31275,Lehrte,52.36978891,9.9729794
Erika-Najork-Straße 2,31535,Neustadt am Rübenberge,52.5129184,9.4519156
Silbersteinstraße 146,12051,Berlin,52.4654377,13.4221843
Bucher Weg 10,39164,Wanzleben-Börde,52.06344915,11.44964494
Am Sudheimer Weg 5,33034,Brakel,51.71326984,9.18083649
Ramskamp 102,25337,Elmshorn,53.74268585,9.70983381
Albrechtshäuser Weg 1-3,37191,Katlenburg,51.68114572,10.11003346
Hinter dem Südbahnhof 1,07548,Gera,50.8672727,12.0785884
Bahnhofstraße 2,23923,Herrnburg,53.8390723,10.7610821
Güstrower Straße 34,19055,Schwerin,53.64415621,11.42408711
Delitzscher Straße 61,04129,Leipzig,51.3670028,12.3852738
Salbker Chaussee 67-71,39118,Magdeburg,52.08369968,11.60133092
Grelckstraße 2,22529,Hamburg,53.59992958,9.95835982
Großhartmannsdorfer Straße 13a,09618,Brand-Erbisdorf,50.85702628,13.32053178
Leipziger Straße 82,98617,Meiningen,50.58432361,10.41285174
Große-Kurfürsten-Straße 82,33615,Bielefeld,52.0265495,8.5277745
Stahlschmidtsbrücke 15,42499,Hückeswagen,51.13593583,7.34104861
Bahnhofstraße 2,37412,Herzberg am Harz,51.64953725,10.3311091
Känerbergstraße 16,57076,Siegen,50.895058,8.0355021
Schönkirchener Straße 80 b,24149,Kiel,54.3290837,10.1984425
Caroline-Herschel-Straße 1,31228,Peine,52.3404937,10.2573797
Hansestraße 1,33689,Bielefeld,51.9514191,8.568947
Kopernikusstraße 13,37603,Holzminden,51.8427496,9.465652
Hamburger Straße 85,21244,Buchholz in der Nordheide,53.3383635,9.8793864
Oerweg 50,45657,Recklinghausen,51.6207057,7.2051715
Lindenstraße 26,37520,Osterode am Harz,51.73626017,10.23829789
Diedersdorfer Straße 12 b,15306,Seelow,52.5279834,14.3651604
Weimarische Straße 1 A,99625,Kölleda,51.1819481,11.2507554
Ernst-Reuter-Straße 6,37619,Bodenwerder,51.9817645,9.503971
Alter Bahnhof 26,57392,Schmallenberg,51.18427668,8.32091816
Berliner Straße 12,44652,Herne,51.5234872,7.1533354
Röbeler Straße 1,16909,Wittstock,53.16399845,12.49385876
Meierkamp 2,31249,Hohenhameln,52.26230227,10.07362237
Meißner Straße 47A,01445,Radebeul,51.0984998,13.6877894
Bremer Straße 50,28844,Weyhe,52.9881116,8.7858791
F.-Wilhelm-Raiffeisen-Straße 1b,17192,Waren,53.51978063,12.71510573
Hauptstraße 53,33647,Bielefeld,51.98839911,8.51317563
Hachborner Straße 2B,35085,Ebsdorfergrund,50.72388924,8.79606146
Werler Straße 244,59063,Hamm,51.6609668,7.8336002
Winckelmannstraße 38-42,12487,Berlin,52.4422087,13.5057039
Rütenbrocker Straße 24,49733,Haren (Ems),52.7940794,7.2260039
Schillerstraße 11,39218,Schönebeck,52.01644056,11.73313351
Silostraße 3A,17389,Anklam,53.8594685,13.6939226
Dürerstraße 11,48477,Hörstel,52.29635226,7.59353574
Paulsternstraße 20,13599,Berlin,52.5411417,13.2485401
Tölckestraße 6,59889,Eslohe (Sauerland),51.25526486,8.16811735
Leeser Straße 33,31547,Rehburg-Loccum,52.4615269,9.1445949
Herrenwaldstrasse 6b,35260,Stadtallendorf,50.82678527,9.01132449
Marienborner Straße 259,57074,Siegen,50.87712324,8.04330297
Burger Straße 85a,42859,Remscheid,51.16697037,7.20263415
Schöppingener Straße 12,48629,Metelen,52.140314,7.212252
Quakenbrücker Straße 6,49413,Dinklage,52.66479152,8.11817126
Marienfelder Chaussee 29,12349,Berlin,52.4189361,13.422056
Friedrichstädter Straße 57A,24768,Rendsburg,54.32005209,9.62489516
Konrad-Adenauer-Allee 3,06366,Köthen (Anhalt),51.74842911,11.94904311
Tonnaer Straße 36A,99947,Bad Langensalza,51.10450772,10.65792956
Dr.-Dürr-Straße 12,27793,Wildeshausen,52.8989762,8.4175999
Friedhofsweg 2,06632,Freyburg (Unstrut),51.22022692,11.77264195
Richard-Tauber-Damm 6,12277,Berlin,52.41851369,13.39079794
Heinrich-Nordhoff-Straße 3,38271,Baddeckenstedt,52.0929324,10.2185654
Steilshooper Straße 317,22309,Hamburg,53.60763718,10.05610481
Lauchhammer Straße 60,04910,Elsterwerda,51.46490108,13.53396163
Otto-Peschel-Straße 14-16,21745,Hemmoor,53.6841064,9.1607449
Poststrasse 59,57319,Bad Berleburg,51.05446558,8.39399579
Zum Alten Schacht 4,45699,Herten,51.60280591,7.15473953
Bethelner Landstraße 24,31028,Gronau (Leine),52.0899519,9.78784519
Bahnhofstraße 28,58809,Neuenrade,51.28257761,7.78898856
Johann-Stelling-Straße 22,19205,Gadebusch,53.7015537,11.1122228
Hansastraße 5,49134,Wallenhorst,52.3558884,7.9989489
Rathausmarkt 3 b,23617,Stockelsdorf,53.88798977,10.64829269
Bergzower Straße 6,39307,Genthin,52.4091868,12.1510283
Schwaneweder Straße 27,28779,Bremen,53.1986797,8.5722436
Stubbenweg 31,26125,Oldenburg,53.18249146,8.22988164
Querkamp 69,22119,Hamburg,53.55741709,10.10291922
Hauptstraße 96,24980,Schafflund,54.76239101,9.16917023
Zur Mühle 10,34295,Edermünde,51.2108777,9.4490818
Raiffeisenplatz 14,25704,Meldorf,54.091309,9.079239
Ebereschenweg 1e,18273,Güstrow,53.80944256,12.19118604
Bürgermeister-Brinkmann-Weg 4,33818,Leopoldshöhe,52.0110937,8.7003547
Im Boden 2-4,35112,Fronhausen,50.70921196,8.69613914
Lortzingstraße 19 a,18119,Rostock,54.16931786,12.08346452
Saasaer Straße 1,07607,Eisenberg,50.96363969,11.88784072
Bergstraße 32,04838,Eilenburg,51.4575873,12.6136968
Sassenberger Straße 57,48231,Warendorf,51.9571058,8.0058878
Hatzfelder Straße 22-24,33104,Paderborn,51.74887443,8.7186386
Ernst-Morsch-Straße 9,31137,Hildesheim,52.1678752,9.9341414
Atenser Allee 142,26954,Nordenham,53.50384043,8.47945814
Am Landwehrbach 7,44575,Castrop-Rauxel,51.55526597,7.292982
Bornaer Straße 148,09114,Chemnitz,50.86404029,12.902457
Kietzstraße 20,17291,Prenzlau,53.32000863,13.8572327
Bahnhofstraße 5,26188,Edewecht,53.1279507,7.9810755
Lily-Braun-Straße 18-22,23843,Bad Oldesloe,53.8005859,10.4021525
Franzstraße 159,06842,Dessau-Roßlau,51.8245574,12.2424057
Felix-Fraling-Straße 16,48356,Nordwalde,52.08153237,7.47672886
Salchendorfer Weg 1,13583,Berlin,52.5460448,13.1778643
Albert-Schweitzer-Straße 37,32584,Löhne,52.20023465,8.72834831
Hansestraße 6,48653,Coesfeld,51.93754234,7.16669314
Weinböhlaer Straße 9,01445,Radebeul,51.1133596,13.6128824
Hamburger Straße 36-38,21481,Bad Bramstedt,53.91195315,9.88045278
Kurt-Schumacher-Platz 4,24109,Kiel,54.3237325,10.054179
Ritterhuder Heerstraße 6,28239,Bremen,53.13475753,8.73703189
In der Schratwanne 36,31141,Hildesheim,52.12056765,9.98976009
Wexstraße 16-18,10715,Berlin,52.4791785,13.3350602
Hartkirchener Chaussee 14,25469,Halstenbek,53.63460435,9.83795859
Friedhofsallee 144,23554,Lübeck,53.89291003,10.6672843
Feuerwache 16,49205,Hasbergen,52.2423394,7.9617522
Brenkenkamp 10,33129,Delbrück,51.7670061,8.5626948
Bramscher Straße 46-48,49593,Bersenbrück,52.54998774,7.94977822
Am Casinopark 14,21465,Wentorf bei Hamburg,53.48939545,10.25343795
Am Vogts Garten 2a,06308,Klostermansfeld,51.58477063,11.5025368
Große Tonkuhle 3,31737,Rinteln,52.19822114,9.08190909
Papenbrucher Chaussee 2,16909,Wittstock,53.15623107,12.47946394
Am Dahlhof 2,59075,Hamm,51.6874684,7.7461024
Hauptstraße 1,23898,Sandesneben,53.69168547,10.5024103
Meinersdorfer Straße 8,07937,Zeulenroda-Triebes,50.65936819,11.99452871
Kurt-Schumacher-Straße 192,45881,Gelsenkirchen,51.53701764,7.0724544
Ernst-August-Stieg 7,21107,Hamburg,53.5199083,9.98475914
Bruchstraße 193,32289,Rödinghausen,52.20273611,8.46153069
Bahnhofstraße 94,25451,Quickborn,53.7308207,9.90431466
Hammersbecker Straße 87,28755,Bremen,53.18439802,8.61825874
Gewerbering 5,01744,Reinholdshain,50.89679543,13.6890842
Christian-Liebrecht-Straße 3a,58739,Wickede,51.4933078,7.8650981
Am Kauf Park 2,37079,Göttingen,51.5301446,9.88106912
Faustmühlenweg 30,34253,Lohfelden,51.2849733,9.5464798
Meyers Tannen 8,49565,Bramsche,52.40133521,7.99064809
Löninger Straße 10,49770,Herzlake,52.6846078,7.6079173
Coburger Platz 2,99867,Gotha,50.94544122,10.68510694
Zollstraße 1,58089,Hagen,51.3692785,7.4631779
Fleckebyer Straße 7,18239,Satow,53.98053366,11.8757209
Am Edenhof 1,26524,Hage,53.6021369,7.2914526
Osttangente 6,31832,Springe,52.212678,9.570656
Bahnhofstraße 19,33829,Borgholzhausen,52.10019542,8.29666861
Klosterstraße,45879,Gelsenkirchen,51.508402,7.0952476
Albersloher Weg 550,48167,Münster,51.92385407,7.6717098
Tecklenburger Straße 12,49525,Lengerich,52.19255931,7.84621786
Rolfesstraße 3,35683,Dillenburg,50.72446051,8.28872306
Randstraße 77,22525,Hamburg,53.58824736,9.9224258
Rettiner Weg 77,23730,Neustadt in Holstein,54.10482915,10.83493871
Olbernhauer Straße 72,09599,Freiberg,50.90474543,13.33720085
Dewitzer Chaussee 11,17094,Burg Stargard,53.49449447,13.31886761
Märkische Straße 277,42281,Wuppertal,51.29402332,7.20127134
Amtmann-Ibing-Straße 9,44805,Bochum,51.5183133,7.2811314
Homberger Straße 142,36251,Bad Hersfeld,50.87984184,9.68786295
Schillerstraße 11,29410,Salzwedel,52.8521206,11.1657421
Dresdner Str. 31d,09599,Freiberg,50.9148606,13.36585547
Am Hafen 11,17207,Röbel,53.38317592,12.60599299
Waldweg 1-5,27356,Rotenburg (Wümme),53.1202067,9.4221031
Dörfelstraße 4,09526,Olbernhau,50.65132667,13.35100647
Olvenstedter Scheid 52,39130,Magdeburg,52.1507712,11.5873697
Lahauser Straße 2 a,28844,Weyhe,52.9816797,8.8515113
Buersche Straße 83,45964,Gladbeck,51.57912194,7.00537161
Herrntroper Straße 76,57399,Kirchhundem,51.08850181,8.10705667
Handelsstraße 2,26736,Krummhörn,53.4286691,7.1090059
Kasseler Straße 96,34308,Bad Emstal,51.24916819,9.2695061
Bremer Straße 4,49610,Quakenbrück,52.68157825,7.95911198
Frankfurter Straße 7,35274,Kirchhain,50.8259046,8.91483473
Kieler Tor 42,24619,Bornhöved,54.07600384,10.22814512
Carl-Severing-Straße 85,33649,Bielefeld,51.99759873,8.48734211
Oerlinghauser Straße 10,33699,Bielefeld,51.9925924,8.6053429
Hauptstraße 5 b,25782,Tellingstedt,54.2201454,9.277938
Falkenweg 6a,49377,Vechta,52.7349588,8.2809314
Overbergstraße 18,49767,Twist,52.6483958,7.0954649
Harburger Straße 25,21435,Stelle,53.3855647,10.10536964
Riemker Straße 13,44809,Bochum,51.50593154,7.19446287
Grüner Weg 3,25462,Rellingen,53.65366396,9.82357461
Weberstraße 3,59423,Unna,51.5364654,7.6804278
Neuer Weg 37 b,21029,Hamburg,53.4836968,10.2133665
Leinenweberstraße 19,46348,Raesfeld,51.7676009,6.8369025
Lüchower Straße 10,29571,Rosche,52.9867135,10.75641201
Am Bahnhof Süd 7,27432,Bremervörde,53.48111977,9.13999784
Hüttenstraße 16,49170,Hagen am Teutoburger Wald,52.19804906,7.98622188
Benzstraße 4,37083,Göttingen,51.51165637,9.94035214
Kaiser-Wilhelm-Platz 2,10827,Berlin,52.48607695,13.35696133
Fürstenwalder Straße 10B,15848,Beeskow,52.18254607,14.24027876
Lähdener Straße 2,49740,Haselünne,52.6764011,7.4926568
Bahnhofstraße 43,48565,Steinfurt,52.1471365,7.3320693
Barbaraweg 3,06773,Gräfenhainichen,51.72488028,12.43174986
Neue Straße 37,37581,Bad Gandersheim,51.86766176,10.01787333
Gutenbergstraße 3a,21509,Glinde,53.52371795,10.22950802
Am Eichholz 2,42897,Remscheid,51.1541993,7.267312
Zierower Landstraße 4,23968,Wismar,53.9037394,11.4036802
Struppener Straße 2a,01796,Pirna,50.9569752,13.9526479
Strandstraße 28,18347,Dierhagen,54.2933536,12.3532248
Celler Straße 62,29303,Bergen,52.8010305,9.9673092
Westring 143,33378,Rheda-Wiedenbrück,51.83724433,8.30122227
Planckstraße 10,59557,Lippstadt,51.65423159,8.34629723
Hinrichsdorfer Straße 8,18146,Rostock,54.10941268,12.16250958
Am Kalkofen 7,33813,Oerlinghausen,51.94753369,8.65755177
Ferdinand-Lassalle-Straße 21,08223,Falkenstein,50.47446628,12.36673977
Coesfelder Straße 68,48683,Ahaus,52.0680605,7.0109343
Stuckenacker 5,58708,Menden (Sauerland),51.4461093,7.7619828
Bloherfelder Straße 97,26129,Oldenburg,53.14062519,8.17758045
Wannestraße 2,59823,Arnsberg,51.416877,8.0452941
Stiftsstraße 11,58313,Herdecke,51.4011364,7.4313974
Anderter Straße 16-18,30629,Hannover,52.38838874,9.85593554
Flurstraße 20,40822,Mettmann,51.2462738,6.98365973
Osenbrückstraße 5,28309,Bremen,53.05970294,8.88783196
Laurenzstraße 41,48607,Ochtrup,52.2111,7.19449
Hildburghauser Straße 3,12279,Berlin,52.4123499,13.3607139
Göhler Straße 1-15,23758,Oldenburg in Holstein,54.29095562,10.89082604
Viechelner Chaussee 8,23966,Bad Kleinen,53.77435888,11.4776352
Magdeburger Straße 17,06449,Aschersleben,51.75933996,11.45123592
Roter Mühlenweg 28,08340,Schwarzenberg,50.55004715,12.77443528
Kandinskyallee 4-12,22115,Hamburg,53.5254879,10.1505994
Wedemarkstraße 100,30900,Wedemark,52.5475904,9.7479316
Webergasse 1,01067,Dresden,51.04958702,13.73597959
Hagener Straße 9,57072,Siegen,50.88250542,8.0281976
Nordallee 3,29525,Uelzen,52.98534441,10.54691067
Am Kaufpark 1,35279,Neustadt (Hessen),50.84674312,9.09687317
Stendaler Chaussee 35,39606,Osterburg,52.7750842,11.7553577
Feldstraße 5,22880,Wedel,53.57782194,9.70670932
Leipziger Straße 34,04420,Markranstädt,51.30531184,12.22574461
Am Mühlencenter 10,49685,Emstek,52.83389,8.16335
Dötlinger Straße 10-12,28197,Bremen,53.0801133,8.7709797
Malberger Straße 1,49124,Georgsmarienhütte,52.21007728,8.03677429
Hermsdorfer Straße 4,99099,Erfurt,50.97098466,11.06115634
Markstraße 139,44803,Bochum,51.45379652,7.24786773
An der Tonkuhle 2,33617,Bielefeld,52.00811266,8.51975401
Dreekamp 10,26605,Aurich,53.46986051,7.45752883
Lierfeldstraße 5,45326,Essen,51.48457049,7.01002824
Willy-Brandt-Ring 2,08606,Oelsnitz,50.4249796,12.1713756
Quetziner Straße 19b,19395,Plau am See,53.46279941,12.26513124
Briloner Straße 3,33647,Bielefeld,51.9814221,8.5166087
Ostring 40-44,34277,Fuldabrück,51.27259166,9.49996316
Ackerstraße 2,39112,Magdeburg,52.11530889,11.61908474
Rostocker Landweg 1b,18311,Ribnitz-Damgarten,54.23747843,12.43404405
Goethestraße 2,15859,Storkow (Mark),52.25069637,13.9278487
Röhre 32,59846,Sundern,51.31505678,8.00991629
Gewerbegebiet Fulgengrund 4,18225,Kühlungsborn,54.145362,11.7690971
Beckhausstraße 64,33611,Bielefeld,52.0383987,8.5441541
Geschwister-Scholl - Straße 26,59348,Lüdinghausen,51.77286428,7.45102579
Lerchenstraße 27,49152,Bad Essen,52.3215256,8.3484319
Kasseler Straße 3,34576,Homberg (Efze),51.0332852,9.4001866
Thüringer Straße 9,26723,Emden,53.3613629,7.1683246
Ostbredenstraße 77,59229,Ahlen,51.7599076,7.908643
Hemmstraße 353-357,28215,Bremen,53.10107308,8.81528607
Elbestraße 22,38120,Braunschweig,52.2486381,10.479269
Paul-Dessau-Straße 6,22761,Hamburg,53.5628602,9.9156794
Siegburgstraße 20,44359,Dortmund,51.570142,7.38338988
Wasbeker Straße 330,24537,Neumünster,54.0716019,9.94067113
Lindenstraße 31,49565,Bramsche,52.4140287,7.975695
Alexander-Fleming-Straße 1,23562,Lübeck,53.83207878,10.69012412
Zechenstraße 47,45772,Marl,51.66526994,7.0822764
Piepmühle 5,31542,Bad Nenndorf,52.33548952,9.40334368
Stolberger Straße 134,99734,Nordhausen,51.5149088,10.8038745
Kaiser-Otto-Weg 7,59494,Soest,51.55671272,8.10772413
Breiteweg 51,39179,Barleben,52.2023037,11.6194612
Steinbecker Meile 6,42117,Wuppertal,51.2492761,7.1344517
Rummelsburger Straße 16,12459,Berlin,52.46865315,13.51288087
Vahrer Straße 279-281,28329,Bremen,53.0765846,8.8831512
Altenaer Straße 29,58762,Altena,51.2975982,7.74784
Bürgermeister-Heidenreich-Straße 1a,26316,Varel,53.3946812,8.1303145
Späthstraße 14-15,12359,Berlin,52.452277,13.4557288
Pontestraße 10,02826,Görlitz,51.158199,14.983635
Friedrich-Engels-Straße 79,15745,Wildau,52.32484377,13.63663272
Coldinner Straße 11,26532,Großheide,53.59244917,7.34658801
Rogätzer Straße 33,39326,Wolmirstedt,52.26225708,11.64026085
Annenheider Straße 181,27755,Delmenhorst,53.0267332,8.6524898
Gablonzer Straße 5,24610,Trappenkamp,54.04282478,10.21440906
Pfarrer-Becker-Straße 7,46354,Südlohn,51.9334528,6.8077949
Emsteker Straße 30,49661,Cloppenburg,52.84318342,8.05073509
Brauner Berg 9,24159,Kiel,54.3963354,10.1758418
Berolinastraße 7,10178,Berlin,52.5216242,13.4239147
Marktplatz 3,59399,Olfen,51.70768024,7.37810868
Schleswiger Chaussee 45,24768,Rendsburg,54.31231743,9.64442365
2. Kompanieweg 8,26632,Ihlow,53.40734355,7.44029524
Eichstraße 18-20,31241,Ilsede,52.26454056,10.21621281
Bahnhofsstraße 28,58553,Halver,51.1837219,7.5034763
Lindengraben 14,44803,Bochum,51.4727914,7.24420408
Schreyerring 6,22309,Hamburg,53.61146241,10.05879157
Straßburger Platz 1,01307,Dresden,51.04671,13.7560717
Haynauer Straße 76-80,12249,Berlin,52.43462,13.36734
Pagenstecherstraße 144,49090,Osnabrück,52.2953305,8.01623
Carl-Backhaus-Straße 44,22926,Ahrensburg,53.67968137,10.26133172
Bremer Straße 51,21224,Rosengarten,53.3793496,9.89736356
Sundgauer Straße 83-85,14169,Berlin,52.4391544,13.271336
Kirschallee 11,39590,Tangermünde,52.54732407,11.96599947
Augustusburger Straße 75,09557,Flöha,50.84982381,13.07671812
Marktplatz Ickern 2,44581,Castrop-Rauxel,51.59185396,7.33854789
Tillystraße 30,30459,Hannover,52.3380508,9.7183251
Hermesstraße 7,06114,Halle,51.49840738,11.98437321
Am Wallgraben 14,33154,Salzkotten,51.6735582,8.6051028
Hildesheimer Straße 350,30880,Laatzen,52.2854713,9.8209723
Bahrenfelder Straße 188,22765,Hamburg,53.55496727,9.92878452
Dr.-Salvador-Allende-Straße 1,09119,Chemnitz,50.80930913,12.89151792
Schützenstraße 65,59505,Bad Sassendorf,51.5793687,8.1603115
Meiendorfer Straße 98,22145,Hamburg,53.6230556,10.1672222
Gummersbacher Straße 137a,51709,Marienheide,51.0541702,7.5449572
Wismarsche Straße 2,18246,Bützow,53.84534952,11.97270151
Coburger Straße 26,98646,Hildburghausen,50.42111757,10.72975879
Niederwerberstraße 6,34513,Waldeck,51.24105664,9.01017863
Lange Straße 12-14,27305,Bruchhausen-Vilsen,52.82938686,8.99052212
Potsdamer Chaussee 33,14129,Berlin,52.4281248,13.2148636
Eiderkamp 1,24220,Flintbek,54.2400916,10.0615051
Goorstorfer Straße 50,18146,Rostock,54.12336198,12.16799126
Hohe Steinert 5,58509,Lüdenscheid,51.227389,7.6070202
Sierksdorfer Straße 19,23730,Neustadt in Holstein,54.09655706,10.79236115
Keitumer Landstraße 21,25980,Sylt,54.904654,8.32149
Hennigsdorfer Straße 167,13503,Berlin,52.6271768,13.2254497
Dresdener Straße 68,02625,Bautzen,51.18023661,14.40362368
Am Schafberge 2,07570,Weida,50.7801156,12.0401422
J.-Gagarin-Ring 8,19370,Parchim,53.42040315,11.82081171
Arminstraße 27,32756,Detmold,51.94315202,8.87217679
Rudower Straße 116,12351,Berlin,52.43504031,13.46613712
Sonneberger Straße 246,98724,Neuhaus am Rennweg,50.4926542,11.1601327
Johann-Friedrich-Böttger-Straße 17,98693,Ilmenau,50.67618601,10.92871954
Degerser Straße 34,30974,Wennigsen,52.28197765,9.57520729
Grenzallee 4 L,12057,Berlin,52.47031687,13.46180115
Dingolfinger Straße 1,12683,Berlin,52.5103924,13.5626195
Celler Straße 50a,29348,Eschede,52.72761393,10.22817128
Kastanienallee 1,23946,Ostseebad Boltenhagen,53.9876603,11.1971606
An der Ziegelei 2,01454,Radeberg,51.12910395,13.91676301
Julius-Rütgers-Straße 1a,15537,Erkner,52.4300183,13.7526315
Ritterkamp 42,28790,Schwanewede,53.22751661,8.59805901
Breslauer Straße 13,38259,Salzgitter,52.05137638,10.37463338
Am Dreweswäldchen 19,23970,Wismar,53.88341239,11.45893
Löwenhainer Straße 2,01279,Dresden,51.0287866,13.8125787
Plöner Landstraße 8-10,23701,Eutin,54.13036111,10.57963316
Krüsistraße 7,22305,Hamburg,53.587902,10.0449247
Elster Straße 77,08626,Adorf,50.3083699,12.2534249
Schullendamm 64B,49716,Meppen,52.69261402,7.27218426
Angelbecker Straße 1,49624,Löningen,52.73233318,7.75764536
Uferstraße 4,01917,Kamenz,51.27146909,14.10365771
Mörgekenweg 8,45309,Essen,51.47219419,7.0734344
Gesundbrunnenring 4,02625,Bautzen,51.18671545,14.44040271
Planetenring 33,30823,Garbsen,52.42047537,9.59606478
Güttloh 1-5,25451,Quickborn,53.72133886,9.90147051
Kälberhof 21,57250,Netphen,50.88220422,8.14237451
Weyerstraße 306,42719,Solingen,51.17973051,7.03342296
Nieskyer Straße 100,02828,Görlitz,51.169551,14.9710012
Hüttenstraße 67,33184,Altenbeken,51.7559553,8.9532364
Amtmann-Bullrich-Straße 23,33719,Bielefeld-Heepen,52.0323601,8.6094021
Magdeburger Straße 20,39397,Gröningen,51.9408198,11.2325608
Weseler Straße 651,48163,Münster,51.9240348,7.5777449
Südring 30,34497,Korbach,51.26399878,8.86582494
Altenburger Straße 1,07743,Jena,50.94687746,11.60444381
Kaufpark Steffenberg 2,35239,Steffenberg,50.8400445,8.4674549
Lohausstraße 17,45721,Haltern am See,51.7504847,7.195085
Windelsbleicher Straße 239a,33659,Bielefeld,51.9592926,8.521615
Rübenbaum 1,29553,Bienenbüttel,53.13492311,10.4948541
Teninger Straße 5,01619,Zeithain,51.33570295,13.33941543
Geschwister-Scholl-Straße 30,14776,Brandenburg an der Havel,52.4030225,12.5691298
Am Denkmal 4,38112,Braunschweig,52.30426016,10.5184467
Uferstraße 3,08412,Werdau,50.73465233,12.37292512
Johann-Koch-Straße 2,30982,Pattensen,52.2637868,9.77071081
Am Kuchenhaus 12,08321,Zschorlau,50.56383907,12.63665617
Am Marienhof 1-3,22880,Wedel,53.59280225,9.71057927
Benrather Straße 14,42115,Wuppertal,51.2539786,7.1003342
Schipkauer Straße 13,01987,Schwarzheide,51.46764248,13.86941318
Ellnröder Straße 27,35285,Gemünden,50.98329841,8.97175089
Wittrockstraße 3,34121,Kassel,51.31149228,9.46426038
Gülzower Straße 74,12619,Berlin,52.5170064,13.5896834
Am Zollstock 51,57439,Attendorn,51.12167569,7.90175238
Lübecker Straße 116-124,22087,Hamburg,53.56288205,10.03355614
Große Straße 36,27367,Sottrum,53.1157196,9.2335477
Scherlebecker Straße 256,45701,Herten,51.61673694,7.14450259
Heinrich-Niemeyer-Straße 66,48477,Hörstel,52.25688345,7.62974526
Lankwitzer Straße 20-24,12209,Berlin,52.4294212,13.3295234
Äußere Reichenbacher Straße 64,08529,Plauen,50.49571695,12.17152365
Gerberstraße 16-23,03253,Doberlug-Kirchhain,51.63744093,13.56411073
Löbtauer Straße 40,01159,Dresden,51.0510879,13.71358445
Lenzener Chaussee 19,19322,Wittenberge,53.00359385,11.71935272
Friedenstraße 94a,42699,Solingen,51.15218652,7.02214512
Idenbrockplatz 27/28,48159,Münster,51.9945269,7.6029874
Handelspark 21,27624,Geestland,53.6280923,8.8092153
Haegestraße 6-8,33330,Gütersloh,51.91753798,8.37138491
Steinweg 73,34346,Hann. Münden,51.4186245,9.6645552
Chopinstraße 28,13088,Berlin,52.5455863,13.4637039
Kieler Straße 5,24238,Selent,54.2891912,10.429759
Van-Wouwer-Straße 1-3,25840,Friedrichstadt,54.3782587,9.07362566
Konrad-Adenauer-Straße 3,24768,Rendsburg,54.30159453,9.67392399
Kampstraße 20/22,33332,Gütersloh,51.9019269,8.3977568
Cuxhavener Straße 42-44,21762,Otterndorf,53.80744428,8.88694102
Stresemannstraße 150,27576,Bremerhaven,53.55798628,8.59416795
Warnemünder Straße 8,14199,Berlin,52.4732275,13.2904125
Porschestraße 102,38440,Wolfsburg,52.41884272,10.7842877
Mühlenburger Straße 5,32139,Spenge,52.13888566,8.48160112
Fürstenberger Straße 26,33142,Büren,51.5458276,8.564191
Braasstraße 1C,31737,Rinteln,52.168863,9.066571
Wanner Straße 186,45888,Gelsenkirchen,51.5142409,7.12193678
Bahnhofstraße 25,33803,Steinhagen,52.0091934,8.4129715
Steekberg 1,24107,Kiel,54.35325729,10.09246948
Berliner Platz 4,99091,Erfurt,51.00419465,11.00420096
Pfotenhauerstraße 7b,01307,Dresden,51.05652331,13.76595486
Gneisenaustraße 4,32423,Minden,52.28587413,8.95172396
Heinrich-Böll-Straße 3,58710,Menden (Sauerland),51.4163699,7.8279973
Wilskistraße 47b,14169,Berlin,52.4495811,13.2534579
Ringstraße 19,26789,Leer (Ostfriesland),53.2428735,7.4603008
Zescher Straße 3-5,12307,Berlin,52.3861657,13.4018065
Eislebener Straße 3,06449,Aschersleben,51.74988188,11.45869781
Lüdinghauser Straße 14,59387,Ascheberg,51.79019798,7.61530391
Wartburgstraße 69A,44579,Castrop-Rauxel,51.57961768,7.3028343
Bismarckstraße 2-4,27232,Sulingen,52.6854638,8.8115661
Plöner Chaussee 74,24326,Ascheberg,54.1489826,10.3435589
Düsseldorfer Straße 49,42781,Haan,51.1864289,6.99287306
Keplerstraße 88-92,45147,Essen,51.4430042,6.9811743
Trenckmannstraße 16,16816,Neuruppin,52.91712883,12.80158063
Freienwalder Straße 45 b,16356,Werneuchen,52.63271758,13.74228806
Werftstraße 50,18057,Rostock,54.09424406,12.10726304
Stiftsallee 128,32425,Minden,52.31276619,8.88483169
Theodor-Heuss-Allee 6,28215,Bremen,53.0845731,8.8142129
Wittbräucker Straße 372,44267,Dortmund,51.4644296,7.5248072
Hans-Böckler-Straße 32,33334,Gütersloh,51.8878462,8.3573608
Werner Hellweg 502,44894,Bochum,51.49299425,7.30940771
Steinsetzerstraße 11,28279,Bremen,53.0482669,8.8487276
Bahnhofstraße 1-3,06567,Bad Frankenhausen,51.35357777,11.09935434
Amtsstraße 31,48624,Schöppingen,52.09001276,7.23302178
Beutnerring 21,21077,Hamburg,53.4439186,9.9552199
Kölner Straße 2-14,51702,Bergneustadt,51.0106364,7.6308327
Gildenstraße 65,44263,Dortmund,51.4830185,7.4949251
Industriestraße 9,37079,Göttingen,51.54076063,9.897621
Bahnhofstraße 4-8,58675,Hemer,51.38456641,7.76887344
Rudolf-Diesel-Straße 3,45711,Datteln,51.6499716,7.3269105
Rönneburger Straße 5,21079,Hamburg,53.443607,9.992443
Kieler Straße 66,25474,Bönningstedt,53.6611887,9.9071392
Buckower Damm 50,12349,Berlin,52.4402077,13.4339664
Kühlhausberg 15,17235,Neustrelitz,53.349643,13.076573
Karlstraße 1,06406,Bernburg (Saale),51.7947837,11.745336
Wilhelm-Ostwald-Straße 8,04703,Leisnig,51.15683614,12.91603883
Bahnhofstraße 18A,38835,Osterwieck,51.96854806,10.71978536
Schusterstraße 1,04539,Groitzsch,51.15163429,12.28756378
Bahnhofstraße 4,34212,Melsungen,51.1287836,9.5490945
Konrad-Adenauer-Straße 37,35745,Herborn,50.67173024,8.30760968
Hansestraße 1A,37574,Einbeck,51.81683637,9.83689828
Niederrheinische Straße 40,34626,Neukirchen,50.87378538,9.33357075
Grete-Schött-Ring 17,48308,Senden,51.85972253,7.49175757
Liberdastraße 5,12047,Berlin,52.4923464,13.4307196
Ohechaussee 26-32,22848,Norderstedt,53.6806978,9.9940681
Blücherstraße 36,06120,Halle (Saale),51.4929359,11.9320207
Niendorfer Straße 2 a,39646,Oebisfelde,52.4282414,10.9945762
Lennestraße 59,58840,Plettenberg,51.2353827,7.8397329
Alt-Mariendorf 16,12107,Berlin,52.44121655,13.39064829
Papestraße 42,45147,Essen,51.4427979,6.9947726
Angerstraße 21,08058,Zwickau,50.73924156,12.49541033
Breul 91,48703,Stadtlohn,51.98770618,6.94148147
Frintroper Straße 422,45359,Essen,51.4749481,6.9142802
Lookvenne 12,26721,Emden,53.3670495,7.20228734
Eutiner Straße 24,23795,Bad Segeberg,53.95016094,10.31344875
Esserstraße 15,58119,Hagen,51.35912596,7.56321594
Ziegelkampstraße 30,31582,Nienburg,52.63372038,9.22521944
Wulf-Werum-Straße 2,21337,Lüneburg,53.26032,10.43774
Apfelweg 4,14542,Werder,52.36388899,12.93896257
Leipziger Straße 35,02763,Zittau,50.90096756,14.8186344
Schwedter Straße 21,16278,Angermünde,53.0160124,14.014199
Paulshorster Straße 18,16831,Rheinsberg,53.1000022,12.8989191
Am Gillenbrink 2,48499,Salzbergen,52.32114222,7.35234244
Lerchenweg 3,08066,Zwickau,50.7194621,12.5135984
Sehlder Str. 19,31008,Elze,52.11522412,9.727331
Neuengammer Hausdeich 205,21039,Hamburg,53.4446111,10.2306854
Beckestraße 57,51647,Gummersbach,51.037806,7.59173
Donaliesstraße 51,06712,Zeitz,51.05722728,12.13380927
Florianstraße 1,26683,Saterland,53.10345595,7.67585735
Leimbachstraße 185,57074,Siegen,50.85716936,8.01950625
Wiedelaher Str. 10 a,38690,Goslar,51.95460784,10.5680551
Dickebankstraße 59,44866,Bochum,51.48101828,7.15913175
Pezolddamm 156-158,22159,Hamburg,53.62434459,10.11530988
Osnabrücker Straße 4a,49163,Bohmte,52.35943217,8.3035699
Dorfstraße 4,25842,Langenhorn,54.6882689,8.9561925
Goethestr. 14,19406,Sternberg,53.71200449,11.82288544
Leipziger Straße 10,04552,Borna,51.1281222,12.50375906
Chemnitzer Straße 28,01187,Dresden,51.0369422,13.7139785
Brüder-Grimm-Ring 9,23560,Lübeck,53.8448903,10.6333605
Stormarnstraße 29,24113,Kiel,54.3056574,10.12608399
Pirnaer Landstraße 196,01257,Dresden,51.0057641,13.83635135
Untergrüner Straße 208,58644,Iserlohn,51.3667101,7.6657008
Jean-Sibelius-Straße 24,99427,Weimar,50.98176064,11.31121979
Zinsdorfer Weg 31,33181,Bad Wünnenberg,51.5230534,8.705868
Röthenkuhlen 85,21379,Scharnebeck,53.2934531,10.4915759
Uthleber Weg 21,99734,Nordhausen,51.4824798,10.8087064
Merseburger Str. 142,06667,Weißenfels,51.219532,11.9685176
Kreuzbergstraße 14,42899,Remscheid,51.21177529,7.23696439
Steeler Straße 187,45138,Essen,51.44978226,7.03496752
Am Waldschlößchen 30,45663,Recklinghausen,51.5829625,7.23308604
Emil-Zimmermann-Allee 20,45897,Gelsenkirchen,51.5606826,7.0508502
Berliner Straße 47/48,14467,Potsdam,52.408954,13.0783552
Dammstücken 25-27,24558,Henstedt-Ulzburg,53.77058507,9.98560652
Goethestraße 11,24534,Neumünster,54.0811079,9.9950491
Untere Promenade 12,58706,Menden (Sauerland),51.43794731,7.78783283
Hehlinger Straße 21,38446,Wolfsburg,52.3989393,10.8355151
Dahler Straße 72,42389,Wuppertal,51.28075069,7.24183143
Sieker Landstraße 29,22143,Hamburg,53.6075595,10.172283
Stedinger Straße 44 a,27777,Ganderkesee,53.0948912,8.5319801
Altstadtstraße 2-4,99817,Eisenach,50.97569863,10.33747343
Kanalstraße 76,23552,Lübeck,53.8686153,10.6953943
Berliner Chaussee 75,06886,Lutherstadt Wittenberg,51.889068,12.6645419
Landstraße 123,37287,Wehretal,51.15794933,9.99907569
Heiligenweg 2,49084,Osnabrück,52.2727591,8.0857539
Auf der Sunhaar 25,48599,Gronau (Westfalen),52.18054565,7.04473656
Berliner Straße 113 d,03099,Kolkwitz,51.7514513,14.2612958
Lerchenbreite 32,38889,Blankenburg (Harz),51.80498676,10.94344717
Riesaer Straße 30,04328,Leipzig,51.3459016,12.4448435
Wehrgasse 1B,08297,Zwönitz,50.64246747,12.81676237
Ibbenbürener Straße 36,49479,Ibbenbüren,52.2620017,7.78082
Gölenkamper Straße 5,49843,Uelsen,52.497539,6.8905849
Lütjenburger Straße 2,24223,Schwentinental,54.2796976,10.2452325
Leipziger Straße 116,37235,Hessisch Lichtenau,51.1992721,9.7288222
Rabenhof 78,33609,Bielefeld,52.05157769,8.59405004
Ingolstädter Weg 13,33102,Paderborn,51.74530971,8.75719976
Stadtilmer Straße 100,99310,Arnstadt,50.82946204,10.96885149
Neumarkt 42,01662,Meißen,51.1583303,13.4705678
Lohstücker Weg 16,24576,Bad Bramstedt,53.91617859,9.88919639
Lengericher Straße 31,49536,Lienen,52.14878534,7.96290278
Cheruskerstraße 14,59269,Beckum,51.749188,8.0194767
Beestener Straße 6,49832,Freren,52.481485,7.5433496
Lindenweg 5,59590,Geseke,51.64563293,8.50756468
Leipziger Chaussee 147,06112,Halle,51.4536276,12.0178956
Westfälische Straße 94,57462,Olpe,51.03572463,7.85629701
Hauptstraße 118-120,28876,Oyten,53.05833083,9.01028929
Karl-Marx-Straße 34,15890,Eisenhüttenstadt,52.1476116,14.6378761
Hauptstraße 45-51,21629,Neu Wulmstorf,53.4629284,9.7978177
Lange Straße 62,38685,Langelsheim,51.93448306,10.34637574
Limbacher Straße 81,09243,Niederfrohna,50.8687565,12.7509145
Fassensteg 4,32689,Kalletal,52.1044852,8.9341319
Schulte-Heuthaus-Straße 54,44379,Dortmund,51.50798317,7.38157977
Tharandter Straße 40,01159,Dresden,51.0374061,13.7037506
Eimsbütteler Chaussee 85,20259,Hamburg,53.56901439,9.95456377
Liebigstraße 6,38640,Goslar,51.9140472,10.444863
Lessingstraße 33 b,19059,Schwerin,53.6345413,11.38745773
Horner Landstraße 110,22111,Hamburg,53.551063,10.07480764
Hauptstraße 75,25899,Niebüll,54.783714,8.825525
Bergstraße 93-97,12169,Berlin,52.4583005,13.3276085
Albert-Einstein-Straße 1A,02977,Hoyerswerda,51.43891574,14.26161405
Schederhofstraße 125,45145,Essen,51.45091766,6.98932303
Zur Feilenfabrik 2,37115,Duderstadt,51.50899202,10.2506498
Hauptstraße 10,01609,Gröditz,51.40873117,13.44659692
Mühlental 42,38855,Wernigerode,51.82279626,10.80711391
Wilhelm-Raabe-Straße 1,99734,Nordhausen,51.50805754,10.77980358
Osterfeldstraße 39,22529,Hamburg,53.598267,9.9724798
Wiesharder Markt 14a,24983,Handewitt,54.77219982,9.32210529
Im Wiesengrund 14,58636,Iserlohn,51.37984271,7.71702435
Gustav-Adolf-Straße 92,22043,Hamburg,53.57455693,10.09889423
Ringstraße 11,35108,Allendorf (Eder),51.02015867,8.66717187
Löbauer Straße 68-70,04347,Leipzig,51.35710405,12.42647989
Alte Baumschule 2,21376,Salzhausen,53.22742709,10.16003745
Clarholzer Straße 30,33442,Herzebrock,51.8805712,8.2382482
Ziegelstraße 2 b,23556,Lübeck,53.8720115,10.6650508
Volkmannstraße 2,28201,Bremen,53.05760195,8.80939072
Artilleriepark 2,14624,Dallgow-Döberitz,52.53274976,13.05977812
Lambertstraße 2 a,44581,Castrop-Rauxel,51.59942504,7.31200835
Gartenallee 4,04827,Machern,51.3605897,12.6158389
Pfennigbreite 38,37671,Höxter,51.77469558,9.35945216
Gökerstraße 111 c,26384,Wilhelmshaven,53.53561428,8.12542894
Göttinger Straße 18,37181,Hardegsen,51.6511899,9.8356223
Dortmunder Straße 99,58453,Witten,51.4505749,7.3656287
Flutstraße 99,26388,Wilhelmshaven,53.57813318,8.11220092
Eduardshof 1,16259,Bad Freienwalde (Oder),52.79527821,14.04072944
Haselnussweg 2,59269,Beckum,51.7989624,8.0332058
Ferdinand-Harten-Straße 3-5,22949,Ammersbek,53.678364,10.1442138
Bremer Straße 34-38,27211,Bassum,52.8512806,8.7280638
Waldkirchener Straße 15,09405,Zschopau,50.7488115,13.0743588
Grauhofstr. 1,38304,Wolfenbüttel,52.1640383,10.5139676
Meyra-Straße 1,32602,Vlotho,52.1622032,8.8504683
Hauptstraße 223,30826,Garbsen,52.45926,9.5772312
Ahornallee 2,02708,Löbau,51.0896089,14.6681741
Wischhausstraße 57,48346,Ostbevern,52.0372514,7.8525384
Funkenberg 1,24568,Kaltenkirchen,53.83719567,9.95655355
Leutragraben 1,07743,Jena,50.92898696,11.5847249
Sewanstraße 259,10319,Berlin,52.4958302,13.5193795
Große Bergstraße 152-162,22767,Hamburg,53.5515708,9.9433603
Zur Alten Ziegelei 1,99885,Ohrdruf,50.82735608,10.72687452
Forellstraße 101-113,44629,Herne,51.54289941,7.20372207
Am Steinkamp 3,21684,Stade,53.5935013,9.4211906
Hans-Böckler-Straße 38,27578,Bremerhaven,53.58929015,8.61834851
Joachimstraße 4,44147,Dortmund,51.51151519,7.43395313
Elbstraße 14,04860,Torgau,51.56177009,13.0062504
Möllner Straße 22 a,21514,Büchen,53.48469611,10.61686801
Werderstraße 25C,19303,Dömitz,53.13956482,11.26191011
Werdohler Straße 3,17153,Stavenhagen,53.68809177,12.91464303
Borghorster Straße 165,48282,Emsdetten,52.16806384,7.50141395
Nord-West-Ring 5,27404,Zeven,53.30570239,9.26996229
Rellinger Straße 25-27,25421,Pinneberg,53.6468357,9.8160313
Altenaer Straße 81-83,58507,Lüdenscheid,51.22940521,7.63375446
Hamburger Chaussee 180,24113,Kiel,54.2992157,10.10475251
Haldesdorfer Straße 86,22179,Hamburg,53.599053,10.0775208
Niederhoner Straße 58 a,37269,Eschwege,51.19444918,10.03124066
Gütersloher Straße 243,33649,Bielefeld,51.9825149,8.4825045
Bernard-Krone-Straße 5,48480,Spelle,52.3623799,7.4734144
Reichenbacher Straße 105,07973,Greiz,50.65188003,12.2238662
Diepholzer Straße 1,49377,Vechta,52.71705495,8.28801048
Grafeler Damm 1,27356,Rotenburg,53.10178339432284,9.397701577246108
Ilseder Straße 58,31226,Peine,52.3095109,10.2320574
Kippdorfstraße 4,42857,Remscheid,51.17633751,7.18006426
Vahrenwalder Straße 252,30179,Hannover,52.4132739,9.73601773
Mindener Straße 123,32429,Minden,52.27269785,8.887601
Bahnhofstraße 77,16359,Biesenthal,52.75416347,13.67245352
Zum Hachepark 3,28857,Syke,52.91512422,8.82683199
Werner-von-Siemens-Straße 5,37077,Göttingen,51.5580338,9.9309694
Zu den Binnenhufen 1,16775,Gransee,53.00211359999999,13.1603473
Torfmoorkamp 10,24106,Kiel,54.35409383,10.10468633
Arsterdamm 94 A,28277,Bremen,53.0434465,8.8316982
Rudolf-Eucken-Straße 3,26802,Moormerland,53.3097773,7.4874988
Raiffeisenstraße 52,26180,Rastede,53.24757649,8.18646888
Olvenstedter Graseweg 37,39128,Magdeburg,52.16147156,11.60710128
Wilhelmstraße 98,38100,Braunschweig,52.26672086,10.52842744
Kreuzbreite 19,31675,Bückeburg,52.26630119,9.07063426
An der Bascheriede 4,38458,Velpke,52.4073276,10.93115461
Borkener Straße 73,48653,Coesfeld,51.9423298,7.1530998
Salentinstraße 160,45661,Recklinghausen,51.5763586,7.1984627
Chemnitzer Straße 28E,09648,Mittweida,50.97822789,12.98106403
Mühlenweg 61,26419,Schortens,53.537253,7.9395274
Gewerbering 2,09456,Annaberg-Buchholz,50.59852974,13.02208755
Ohefeldweg 15,30559,Hannover,52.35676345,9.85359074
Ravensberg 4C,24214,Gettorf,54.41429002,9.98335212
Siemensstraße 1-3,30827,Garbsen,52.443134,9.6098078
Breisgauer Straße 1b,14129,Berlin,52.4396796,13.2169393
Tauchaer Straße 10,04357,Leipzig,51.3781054,12.4165275
Gerhard-Ellrodt-Straße 30,04249,Leipzig,51.301408,12.316744
Bahnhofstraße 15,38527,Meine,52.3839344,10.5337792
Westmoor 2,21614,Buxtehude,53.481636,9.696595
Jenfelder Allee 70,22043,Hamburg,53.57898991,10.12894827
Am Göhlenbach 33,21218,Seevetal,53.3868523,9.9750494
Abbenser Straße 10,31535,Neustadt am Rübenberge,52.5821548,9.586951
Am Lahof 1,28832,Achim,52.99990523,9.09975899
Blickallee 40,48329,Havixbeck,51.97449679,7.41066301
Schweriner Straße 8-12,22143,Hamburg,53.60446788,10.1592452
Altendorfer Straße 226,45143,Essen,51.4601721,6.98518344
Landstraße 1,42781,Haan,51.20223709,7.0205848
An der Kalkröse 2,31020,Salzhemmendorf,52.0651621,9.5841846
Dortmunder Straße 253,59077,Hamm,51.6616436,7.7433706
Hildesheimer Straße 29,38640,Goslar,51.916635,10.417708
Mühlendamm 1,24113,Kiel,54.31184134,10.09855619
Billhorner Röhrendamm 145-147,20539,Hamburg,53.535751,10.037142
Raiffeisenstraße 4,48317,Drensteinfurt,51.79762466,7.73180412
Bodelschwinghstraße 8,38159,Vechelde,52.2647705,10.3640091
Erich-Ollenhauer-Straße 13,30851,Langenhagen,52.4351156,9.75601225
Elcknerplatz 8,12555,Berlin,52.45803033,13.58045669
Rudolf-Breitscheid-Straße 36,14712,Rathenow,52.61829751,12.35128552
Wietmarscher Straße 8,48531,Nordhorn,52.4418787,7.0833264
Luckenwalder Straße 2,14552,Michendorf,52.30596474,13.02960675
Neue Torstraße 13a,19288,Ludwigslust,53.32737729,11.5020224
Oststraße 2,06526,Sangerhausen,51.4796263,11.3154014
Cloppenburger Straße 293,26133,Oldenburg,53.1132636,8.2124998
Friedrich-Frank-Bogen 170,21033,Hamburg,53.48874944,10.18448568
Arendseer Straße 49,39615,Seehausen (Altmark),52.8879713,11.7328698
Am Mondschein 29,59557,Lippstadt,51.6738387,8.3734274
Neue Wiese 13,31061,Alfeld (Leine),51.9875233,9.8047358
Marktallee 1,24955,Harrislee,54.7980426,9.3970281
Eisenbahnstraße 25,04509,Delitzsch,51.5257194,12.3445339
Potsdamer Straße 1,16321,Bernau bei Berlin,52.6808267,13.55651636
Am Langenmoor 1,28879,Grasberg,53.18441753,8.98082713
Esenser Straße 58,26409,Wittmund,53.58501565,7.77151024
Hanns-Eisler-Platz 11,39128,Magdeburg,52.16964012,11.62503382
Hansering 9-19,23558,Lübeck,53.8565043,10.6654624
Am Bexterholz 2,32107,Bad Salzuflen,52.0634418,8.6921199
Ludwig-Koch-Straße 4,57334,Bad Laasphe,50.92910855,8.42577891
Hagener Straße 220,58285,Gevelsberg,51.32840443,7.36706411
Kesselsdorfer Straße 160,01169,Dresden,51.04036252,13.66731735
Boleweg 14,59494,Soest,51.56092402,8.08526774
Möllner Landstraße 131,22117,Hamburg,53.53881542,10.1231479
Gewerbestraße 13A,26506,Norden,53.601457,7.1846995
Invalidenstraße 59,10557,Berlin,52.5241705,13.3640792
Iris - Hahs - Hoffstetter - Straße 1,15712,Königs Wusterhausen,52.2961759,13.6828498
Katzenbruchstraße 78,45141,Essen,51.46959611,7.02090252
Osnabrücker Straße 13-15,49134,Wallenhorst,52.3340151,8.0248599
Twentmannstraße 7-11,45141,Essen,51.47646451,7.03126018
Senefelderstraße 13,33100,Paderborn,51.73428681,8.78848517
Kantstraße 22,23566,Lübeck,53.8668458,10.7220233
Hertener Straße 53,45892,Gelsenkirchen,51.5818433,7.1051512
Feuerweg 6 e,27639,Wurster Nordseeküste,53.7787873,8.6160808
Langenhof 30A,26160,Bad Zwischenahn,53.18150226,8.00726621
Fulerumer Straße 221-223,45149,Essen,51.420724,6.9604463
Sietwender Straße 66,21706,Drochtersen,53.7141954,9.3775385
Schillerstraße 1,14641,Nauen,52.60996,12.859308
Alfred-Kowalke-Straße 2,10315,Berlin,52.5044987,13.5164753
Warnsveldallee 2,48612,Horstmar,52.08356106,7.31206578
Glockenbruchweg 84,34134,Kassel,51.29219225,9.45717548
Mühlstraße 13,06749,Bitterfeld-Wolfen,51.6247048,12.3335817
Schleswiger Str. 130,24941,Flensburg,54.759944,9.4317876
Neustädter Straße 28,16816,Neuruppin,52.9171487,12.7855036
Bülowstraße 80,45711,Datteln,51.6659916,7.3473245
Rudolf-Diesel-Ring 34,31535,Neustadt am Rübenberge,52.51187037,9.47655862
Augustmauer 4,99084,Erfurt,50.9741019,11.033369
Magdeburger Straße 38a,06862,Dessau-Roßlau,51.889135,12.233496
Ziegeleistraße 16,39240,Calbe (Saale),51.9122165,11.7746684
Werkstraße 17,31789,Hameln,52.07553438,9.32988157
Große Straße 74,49439,Steinfeld (Oldenburg),52.59146815,8.21895446
Ochtruper Straße 143,48599,Gronau (Westfalen),52.20505316,7.05242571
Pinneberger Chaussee 130,22523,Hamburg,53.6200873,9.8881321
Döllnitzer Straße 7a,39629,Bismark (Altmark),52.66098179,11.54767274
Vechtaer Straße 1,49424,Goldenstedt,52.7828141,8.43043762
Enneper Straße 146a,58135,Hagen,51.34038085,7.39473781
Beckendorfstraße 3,33739,Bielefeld,52.096874,8.51341713
An der Hasenbahn 3,29225,Celle,52.60545751,10.05402109
Dölauer Straße 80,06120,Halle,51.50828463,11.93557318
Lilienweg 2,48361,Beelen,51.9292495,8.1258063
Suhler Straße 6,38444,Wolfsburg,52.4018535,10.7490928
Stader Straße 11,27419,Sittensen,53.285234,9.50526862
Bunsenstraße 8,30890,Barsinghausen,52.30374573,9.48675234
Braunschweiger Straße 106,38518,Gifhorn,52.4689577,10.5412082
Bogenstraße 30,22926,Ahrensburg,53.666461,10.2315441
Wilmersdorfer Straße 36-37,10585,Berlin,52.51223164,13.30480516
Neue Mitte 3,59955,Winterberg,51.1967705,8.5320888
Kronsforder Allee 70C,23560,Lübeck,53.846687,10.6811318
Nonnenstraße 13/15,04229,Leipzig,51.32880145,12.34381491
Bahnhofstraße 60,58762,Altena,51.30342897,7.66568534
Windmühlenstraße 28,58339,Breckerfeld,51.26391441,7.46206743
Grimsehlstraße 42,37574,Einbeck,51.81532505,9.8788722
Robert-Bosch-Straße 190B,31139,Hildesheim,52.115968,9.90103828
Reichenbacher Straße 106,02827,Görlitz,51.1484095,14.9465945
Jan-Petersen-Straße 16,12679,Berlin,52.5496243,13.5638227
Wittbräucker Straße 53a,44287,Dortmund,51.4856576,7.5529976
Ritterfelddamm 200,14089,Berlin,52.4707874,13.1247117
Anemonenstraße 2,49661,Cloppenburg,52.83475982,8.02617413
Recker Straße 5,49497,Mettingen,52.31845011,7.777294
Heinrich-Böll-Straße 3,48455,Bad Bentheim,52.3056548,7.1689219
Neumarktstraße 47,31683,Obernkirchen,52.27391644,9.13170581
Celler Straße 35,29378,Wittingen,52.72988802,10.71739305
Ehlers Kamp 8,23769,Fehmarn,54.44439394,11.18219958
Alte Bottroper Straße 98,45356,Essen,51.48975748,6.9566648
Am Wulfter Turm 2,49082,Osnabrück,52.2426165,8.0358415
Dessauer Straße 3-4,06886,Lutherstadt Wittenberg,51.86530844,12.62975173
Westerfeld 1,24986,Mittelangeln,54.69532057,9.58749974
Riesapark 2,01587,Riesa,51.2984416,13.2675202
Bremer Straße 76,49191,Belm,52.3055,8.126329
Veerßer Straße 59,29525,Uelzen,52.96043761,10.55743606
Bergmannstraße 1,31558,Hagenburg,52.4354104,9.3558579
An der Au 1,23611,Ratekau,53.92245682,10.72392682
Georg-Schumann-Straße 363,04159,Leipzig,51.3748935,12.3210481
Up de Hacke 19,48691,Vreden,52.0299027,6.8244965
Margot-Röttger-Rath-Straße 3,58239,Schwerte,51.4401843,7.558896
Dorfstraße 15,24963,Tarp,54.66480361,9.40377637
Neuenburger Straße 21,26340,Zetel,53.4144058,7.9682455
Colditzer Str. 6,04643,Geithain,51.05494041,12.7002709
Hildesheimer Straße 401,30519,Hannover,52.3274463,9.7829447
Grüner Weg 1,49196,Bad Laer,52.09877708,8.09882123
Alte Gärtnerei 4,46342,Velen,51.89371919,6.98920028
Werkstättenstraße 7,45659,Recklinghausen,51.598173,7.20667
Am Südbahnhof 42,26725,Emden,53.35971722,7.21657496
Alte Langewahler Chaussee 4,15517,Fürstenwalde,52.3367943,14.0773007
Am Bahnhof 3,26169,Friesoythe,53.02373143,7.85936362
Hallesche Straße 69,06536,Südharz,51.46250909,11.07151378
Ohrdrufer Straße 3,99880,Waltershausen,50.90001045,10.56369475
Am Grünen Tal 25,19063,Schwerin,53.5971367,11.4395222
Vor der Westermarsch 1,21357,Bardowick,53.2965836,10.3823578
Wittinger Straße 44,29392,Wesendorf,52.59362313,10.54414567
Wehringhauser Straße 81-85,58089,Hagen,51.3537093,7.45122895
Vöhrumer Straße 36-40,31228,Peine,52.330833,10.2044776
Hauptstraße 9,13055,Berlin,52.548357,13.50435242
Schleefstraße 15-19,44287,Dortmund,51.50438765,7.56846055
Hans-Günter-Bock-Straße 6,16798,Fürstenberg-Havel,53.1707056,13.1400827
Cuxhavener Straße 402,21149,Hamburg,53.47284,9.84219
Am Bahnhof 3,59510,Lippetal,51.63384468,8.09764107
Ernst-Thälmann-Straße 124,15732,Schulzendorf,52.36407417,13.59200161
Hinter dem Salze 11,38259,Salzgitter,52.04612741,10.37504731
Am Bensjücht 1,26553,Dornum,53.64894444,7.42461276
Oststraße 54-56,99867,Gotha,50.9534667,10.7153233
Münsterstraße 40-42,48167,Münster,51.92314017,7.72690247
Grüner Gang 10,17087,Altentreptow,53.68860524,13.25075921
Schöneberger Straße 28,12103,Berlin,52.4682784,13.3740652
Am Pechpfuhl 8,12529,Schönefeld,52.36813,13.56237
Küllenhahner Straße 67,42349,Wuppertal,51.2288084,7.1453414
Hildburghauser Straße 248,12207,Berlin,52.4198334,13.3144642
Grabenstraße 9,19061,Schwerin,53.60112101,11.38713117
Kardinal-von-Galen-Straße 4,48268,Greven,52.093811,7.6061476
Kasseler Straße 34,35683,Dillenburg,50.75152686,8.27774343
Clara-Zetkin-Straße 36a,14547,Beelitz,52.2383911,12.9701552
Kastanienallee 21/22,38102,Braunschweig,52.26339688,10.54457145
Ollenhauerstraße 106,13403,Berlin,52.5706742,13.3280549
Gifhorner Straße 10,38536,Meinersen,52.47411759,10.36804157
Am Beckhof 80,33689,Bielefeld,51.92748865,8.59917852
Saerbecker Straße 128,48268,Greven,52.10935,7.6132
Märkische Straße 86-88,44141,Dortmund,51.5051846,7.4766482
August- Bebel- Straße 1a,15234,Frankfurt (Oder),52.3442414,14.5266635
Bahnstraße 7,34431,Marsberg,51.46510843,8.85843515
Lüdinghauser Straße 18,44339,Dortmund,51.5554996,7.4743237
Herbeder Straße 10-12,58455,Witten,51.43791,7.32566
Lise-Meitner-Straße 16,25524,Itzehoe,53.95490079,9.49233007
Johannssenstraße 19,25693,St. Michaelisdonn,53.9884369,9.111574
Warendorfer Straße 8,17192,Waren,53.52084441,12.64879675
Pritzwalker Straße 66,39539,Havelberg,52.83592899,12.08146262
Bahnstraße 11,58119,Hagen,51.3496077,7.5722002
Nischwitzer Breite 1,04808,Wurzen,51.3848166,12.7256465
Laischeweg 2,38554,Weyhausen,52.4632063,10.72056428
Waller Heerstraße 101,28219,Bremen,53.1006898,8.7879365
Höhenweg 2,23774,Heiligenhafen,54.364299,10.9670589
Am Ladenzentrum 5,21465,Reinbek,53.5115137,10.2364752
Polsumer Straße 133,45896,Gelsenkirchen,51.5962188,7.0507789
Klingenbergstraße 25,32758,Detmold,51.95154401,8.85446886
Plantage 86F,38444,Wolfsburg,52.362954,10.7504919
Cappenberger Straße 98,44534,Lünen,51.629578,7.527587
Gravelottestraße 1,31134,Hildesheim,52.14778282,9.96375524
Anny-Schröder-Weg 2,23795,Bad Segeberg,53.92756783,10.33033403
Wiesenstr. 26,37170,Uslar,51.66151286,9.63003637
Böhmheide 45,29614,Soltau,52.98292448,9.84019742
Braukämper Straße 107,45899,Gelsenkirchen,51.55483072,7.03178857
Königstraße 59,25709,Marne,53.95613599,9.00663655
Burgdorfer Straße 23,31311,Uetze,52.46347289,10.19723669
Klosterstraße 107,46282,Dorsten,51.6594528,6.9427692
Marburger Straße 388,57223,Kreuztal,50.97103279,8.0478949
Lange Straße 97,49632,Essen (Oldenburg),52.7147421,7.9383639
Flensburger Straße 174,24837,Schleswig,54.529825,9.5307441
An der Brücke 1,19386,Lübz,53.46573947,12.04049596
Eisenbahnstraße 14,32369,Rahden,52.430458,8.6223787
Josef-Orlopp-Straße 22-24,10367,Berlin,52.5224133,13.48421031
Braustraße 1,08499,Mylau,50.62111738,12.26535573
Bruayplatz 2,58730,Fröndenberg,51.4724511,7.7640073
Spitzkrugring 2,15234,Frankfurt (Oder),52.3641523,14.5266899
Neckarstraße 1,38120,Braunschweig,52.2410997,10.4932845
Rudolf-Breitscheid-Straße 27,15837,Baruth-Mark,52.0428316,13.5046035
Elsterstraße 51-57,04109,Leipzig,51.3414257,12.3613862
Straße vor Schönholz 21,13156,Berlin,52.5729669,13.3815524
Alte Bahnlinie 4,26345,Bockhorn,53.3920332,8.0088589
Arthur-Imhausen-Straße 26,58453,Witten,51.439202,7.35265355
Falkenberger Landstraße 89,28865,Lilienthal,53.15412003,8.93445024
Marktstrasse 4,06895,Mühlanger,51.8610442,12.717831
Ernst-Ihle-Straße 10,34613,Schwalmstadt,50.9106,9.2438
Nordhäuser Weg 3,37154,Northeim,51.70841001,10.00524434
Gerhard-Wetzel-Straße 11,32339,Espelkamp,52.3761175,8.6304777
Grimmaische Straße 67,04720,Döbeln,51.1334205,13.0964371
Am Beckerkamp 29 a,21031,Hamburg,53.49795,10.20879
Am Seewasem 3,35216,Biedenkopf,50.90506764,8.53467947
Stockäcker 4,36275,Kirchheim,50.8319287,9.57344536
Bergerstraße 113,16225,Eberswalde,52.83552596,13.81586276
Sperenberger Straße 1,33178,Borchen,51.66551849,8.72513275
B167 15,16244,Schorfheide,52.8503265,13.67925
Wierastrasse 3,34613,Schwalmstadt,50.91125673,9.18148378
Schmuckenberger Weg 2a,32825,Blomberg,51.93844,9.0993897
Am Fuhrenkampe 14,30419,Hannover,52.40984165,9.69332786
Bornstraße 160,44145,Dortmund,51.529479,7.4708344
Zum Feldkamp 16a,27619,Schiffdorf,53.5266,8.6447918
Altenburger Straße 71,04610,Meuselwitz,51.038961,12.3127222
Papenheimer Straße 65,34414,Warburg,51.4933189,9.1350803
Küsterkamp 3,25355,Barmstedt,53.78781165,9.77193
Tonndorfer Hauptstraße 28,22045,Hamburg,53.5827333,10.1160417
Oesterstraße 120,44309,Dortmund,51.53374792,7.54981225
Lindenhofstraße 1,28237,Bremen,53.1157293,8.75814044
Lausanner Straße 83,12205,Berlin,52.4269377,13.303657
Alte Schulstraße 30,38448,Wolfsburg,52.4641631,10.8525183
Annaberger Straße 315,09125,Chemnitz,50.7965813,12.9211236
Bulgakowstraße 7,01217,Dresden,51.0195069,13.7357254
Südertoft 2,24392,Süderbrarup,54.6341504,9.77517688
Hamburger Straße 31,21493,Schwarzenbek,53.5011276,10.470738
Herborner Straße 1,35096,Weimar (Lahn),50.761653,8.7391932
Parkstraße 23,49584,Fürstenau,52.51339725,7.67232317
Georg-Pfingsten-Weg 5,24837,Schleswig,54.50429034,9.54243127
Friederikenstraße 25,04279,Leipzig,51.2927326,12.3938059
Carl-Zeiss-Straße 2-10,24223,Schwentinental,54.28449137,10.22181918
Labahnstraße 18,17424,Heringsdorf,53.95805446,14.15448147
Eisenacher Weg 5,36132,Eiterfeld,50.7581814,9.8080351
Christian-Hülsmeyer-Straße 3,27472,Cuxhaven,53.8428191,8.6929735
Am Siedlerplatz 18,33014,Bad Driburg,51.7213172,9.0142533
Pestalozzistraße 23,17309,Pasewalk,53.5067895,14.0066115
Ziegelstraße 109-111,23556,Lübeck,53.8632469,10.6546787
Am AKKU 7,22885,Barsbüttel,53.5670945,10.1645992
Heinrich-Heine-Platz 8-12,10179,Berlin,52.506381,13.4161598
Rissener Straße 125,22880,Wedel,53.58453515,9.72627026
Promenade 35,14913,Jüterbog,51.9974107,13.08463813
Roßheidestraße 87,45968,Gladbeck,51.5454833,7.0044806
Lemgoer Straße 74,32657,Lemgo,52.02018357,8.91189489
Am Drosselberg 47,99097,Erfurt,50.950437,11.0760464
Bruno-Dost-Straße 39,08289,Schneeberg,50.60077976,12.62489355
Jahnstraße 2,49504,Lotte,52.272145,7.9159153
Darfelder Straße 36,48727,Billerbeck,51.9853835,7.29263291
Erlenbacher Straße 1,42477,Radevormwald,51.1977239,7.38492417
Ziolkowskistraße 25,98693,Ilmenau,50.69601132,10.92375548
Torfbruchstraße 2b,33165,Lichtenau,51.6169207,8.9071653
Milower Landstraße 9A,14712,Rathenow,52.5833154,12.336068
Am Markt 6,26452,Sande,53.50356019,8.01198198
Brehnaer Straße 34,06749,Bitterfeld-Wolfen,51.61262164,12.30688831
Clara-Zetkin-Platz 7,04808,Wurzen,51.36995449,12.74383564
Marktstraße 4,31185,Söhlde,52.2125791,10.1953271
Ratzeburger Straße 36,23879,Mölln,53.6369,10.6927
Otto-Schönermark-Straße 2,06502,Thale,51.75065596,11.04076634
Hauptstraße 6 A,25923,Süderlügum,54.86988991,8.90669221
Friedrich-Ebert-Straße 73,39114,Magdeburg,52.1262605,11.66625999
Hammer Str. 109,45772,Marl,51.69386956,7.11991244
Grünstraße 102,59063,Hamm,51.6679786,7.8179071
Bismarckstraße 10,36179,Bebra,50.96974727,9.79545028
Herrenholz 14,23556,Lübeck,53.8570529,10.62792369
Osterholzer Heerstraße 111-113,28307,Bremen,53.05817703,8.93519513
Riesstraße 43,27721,Ritterhude,53.17961334,8.75451184
Johannisthaler Chaussee 300,12351,Berlin,52.43106,13.456011
Eutiner Ring 14,23611,Bad Schwartau,53.91839,10.69437152
Nova Eventis,06237,Leuna,51.3440169,12.1774043
Birkenbogen 9,24999,Wees,54.8078704,9.5128484
Magdeburger Straße 47,38820,Halberstadt,50.4944018,12.1003466
Norderstraße 11,25767,Albersdorf,54.14836535,9.28338305
Alte Heerstraße 8,31135,Hildesheim,52.1599291,10.0134126
Pfingstweide 2,34270,Schauenburg,51.28010388,9.35655617
Am Saal 12,21217,Seevetal,53.41898397,10.01892108
Bahnhofstraße 27,39619,Arendsee (Altmark),52.87872358,11.49146381
Zur Schönbuche 2,35716,Dietzhölztal,50.8365431,8.3324079
Gellenweg 12-14,34582,Borken,51.04553571,9.27902696
Baakenallee Lola-Rogge-Platz 38,20457,Hamburg,53.53734524,10.01273868
Hauptstraße 37,13127,Berlin,52.61200725,13.43439697
Langenberger Straße 2 a,27798,Hude,53.10574368,8.47176241
Villacher Straße 8,24147,Kiel,54.29769157,10.17388648
Bäderstraße 2 a,17459,Ückeritz,54.01468199,14.04750761
Im Kleinen Maser 3,31195,Lamspringe,51.95680965,10.00226037
Lindenstraße 18,58540,Meinerzhagen,51.10738993,7.64322246
Eichkoppeltwiete 1,22889,Tangstedt,53.73033154,10.09540058
Carl-Heydemann-Ring 130,18437,Stralsund,54.30540366,13.07110159
Poststraße 46,26897,Esterwegen,52.99032499,7.62668495
Henstedter Straße 26,24629,Kisdorf,53.80254109,10.00369124
Heinrich-Grube-Weg 76,27476,Cuxhaven,53.88503285,8.66143098
Geithainer Straße 21,09306,Rochlitz,51.05768364,12.78550317
Stockelsdorfer Weg 80,23611,Bad Schwartau,53.91074064,10.66886191
In der Trift 7,57462,Olpe,51.02149538,7.84285136
Schlachthofstraße 1,06366,Köthen (Anhalt),51.7540041,11.9992788
Luckenwalder Straße 2-6,15711,Königs Wusterhausen,52.29590776,13.62395542
Moorberg 5,31157,Sarstedt,52.23763137,9.87451128
Hauptstraße 35,26209,Hatten,53.02341,8.3468199
Anderter Straße 101M,30559,Hannover,52.37418186,9.8651445
Lüneburger Straße 52-54,29525,Uelzen,52.96898955,10.56117536
Herzebrocker Straße 20,33378,Rheda-Wiedenbrück,51.85862003,8.28217228
Hannoversche Straße 77,30926,Seelze,52.392701,9.6104573
Unterdörnen 80,42283,Wuppertal,51.2685785,7.1924336
Gewerbestraße 4,35644,Hohenahr,50.6718183,8.5164472
Viktoriastraße 63,44532,Lünen,51.60865333,7.50933656
Brünskamp 1,23866,Nahe,53.79983263,10.14526391
Friedrich-Ebert-Allee 3,34225,Baunatal,51.25471517,9.4110912
Eilbergweg 10,22927,Großhansdorf,53.6618271,10.28454313
Unter den Eichen 97,12203,Berlin,52.44560351,13.2946686
Saalfelder Straße 29,07381,Pößneck,51.1200129,13.7698438
Langer Rehm 10,24149,Kiel,54.33456507,10.19041192
Möllner Landstraße 108a,21509,Glinde,53.5422344,10.2164432
Droote 46,44328,Dortmund,51.55809774,7.54245397
Embser Landstraße 4-6,28832,Achim,53.0175603,9.0305202
Dr.-Georg-Kohnert-Straße 22,17126,Jarmen,53.9216879,13.3436102
Osttor 24,48324,Sendenhorst,51.84358157,7.8333896
Westerstraße 33,28199,Bremen,53.07406112,8.79769534
Wüllener Straße 55a,48691,Vreden,52.0356701,6.8340004
Hauptstr. 34,16567,Mühlenbecker Land,52.66578715,13.37969491
Industriestraße 36,21354,Bleckede,53.2871131,10.73325133
Recklinghäuser Straße 79-81,45721,Haltern am See,51.7350553,7.1890757
Cappeler Stiftsallee 72,59555,Lippstadt,51.68537531,8.30954292
Fürstenwalder Allee 314,12589,Berlin,52.4315366,13.714691
Heinrich-Steinberg-Straße 1,26434,Wangerland,53.66691308,7.91052884
Höferhof 14,42929,Wermelskirchen,51.0949217,7.1990212
Dorstener Straße 33,48734,Reken,51.8260389,7.04767022
Pommernstraße 17g,45889,Gelsenkirchen,51.5372388,7.1226526
Königsberger Straße 7,24321,Lütjenburg,54.29352662,10.59990351
Lindenstraße 11,59302,Oelde,51.8285829,8.1471002
Scheidemantelweg 9,99091,Erfurt,51.01676981,10.98465775
Meppener Straße 131,49808,Lingen (Ems),52.5340651,7.3032687
Fähranger 10,32457,Porta Westfalica,52.2381989,8.9146505
Horster Straße 41,45897,Gelsenkirchen,51.575519,7.04985385
Am Marktwege 2,06667,Weißenfels,51.1848853,11.9298471
Bahnhofstraße 68-72,14612,Falkensee,52.55991958,13.09436892
Lärchenweg 1,29227,Celle,52.5991592,10.1090401
Borghausen 11,59909,Bestwig,51.36343342,8.40572035
Am Annatal 59,15344,Strausberg,52.54932407,13.86363254
Hölkeskampring 213,44625,Herne,51.54629171,7.24048946
Ernst-Thälmann-Ring 56,17491,Greifswald,54.07862312,13.41383491
Am Bahndamm 17,30453,Hannover,52.38512352,9.67045271
Kühnauer Straße 25,06846,Dessau-Roßlau,51.8349983,12.2280595
Dinghorner Straße 12,21717,Fredenbeck,53.52243834,9.39564291
Horster Viereck 1,25358,Horst,53.80473487,9.62426354
Schraplauer Straße,06317,Seegebiet Mansfelder Land,51.45166711,11.67134807
Unterstraße 52-58,44892,Bochum,51.47340727,7.31791535
Ostseestraße 25,10409,Berlin,52.5500694,13.4344223
Am Vossberg 6,23758,Oldenburg,54.29198105,10.91335433
Parkstraße 2,27612,Loxstedt,53.47458447,8.65288861
Lohner Straße 1,49835,Wietmarschen,52.4904175,7.2263242
Arolser Straße 19D,34471,Volkmarsen,51.40528779,9.11340115
An der Mühle 7,18311,Ribnitz-Damgarten,54.2541499,12.4887098
Mengeder Straße 11,44536,Lünen,51.59457557,7.43634981
Bergstraße 7,29389,Bad Bodenteich,52.8336421,10.6754819
Rudolf-Renner-Straße 41 A,01796,Pirna,50.97376224,13.93081316
Am Esch 3,26655,Westerstede,53.25931442,7.93289559
Bockstraße 1-3,04289,Leipzig,51.30426127,12.42655616
Timmermansstrat 11,18055,Rostock,54.08372226,12.19458195
Bergstraße 18,04626,Schmölln,50.89740164,12.34984092
Börnestraße 25,13086,Berlin,52.5501531,13.4482585
Kupferdreher Straße 127,45257,Essen,51.39335646,7.08326718
Klingelholl 110,42281,Wuppertal,51.2805223,7.2036869
Oranienburger Straße 57,13437,Berlin,52.58898444,13.33471869
Hamburger Straße 279,38114,Braunschweig,52.27712531,10.52288538
Bebelstraße 163 a,44532,Lünen,51.5917384,7.5368395
Kleine Amtsstraße 9,59073,Hamm,51.70702258,7.83354481
Winkelmannshof 1,29633,Munster,52.98585,10.08769
Hasebrinkstraße 11,49716,Meppen,52.69202271,7.30022266
Ostring 232,24148,Kiel,54.31239982,10.15934604
Grenzweg 2 a,21385,Amelinghausen,53.13011149,10.21499289
Bahnhofstraße 15 a,08209,Auerbach,50.5133692,12.3976497
Berliner Platz 1C,38102,Braunschweig,52.25119376,10.53506109
Quedlinburger Straße 8,34346,Hann. Münden,51.40146956,9.65864362
Steinesweg 6,40822,Mettmann,51.257437,6.950087
Schützenstraße 27,42281,Wuppertal,51.27998023,7.18563373
Grünhufer Bogen 13-17,18437,Kramerhof,54.31975573,13.04661157
Auf dem Haarkamp 2,49219,Glandorf,52.0945358,8.0028141
Wiesenweg 9,21391,Reppenstedt,53.2467862,10.3607941
Grünstraße 3,03130,Spremberg,51.5628029,14.3721436
Münsterstrasse 151,48249,Dülmen,51.83983571,7.28814548
Woltersdorfer Straße 1,15566,Schöneiche bei Berlin,52.4730967,13.7137801
Unterkirchen 24,42349,Wuppertal,51.2040383,7.1293102
Alter Kamp 8,32120,Hiddenhausen,52.1383013,8.6506825
Weinstraße 9,10249,Berlin,52.5264132,13.4266972
Schlachthofstraße 23,99085,Erfurt,50.98737864,11.04115866
Wewerstraße 27,33106,Paderborn,51.729775,8.6931045
Braustraße 13,07551,Gera,50.8615304,12.0871922
Müggelseedamm 150,12587,Berlin,52.44624567,13.62184416
Schützenstraße 5,29451,Dannenberg (Elbe),53.0976183,11.0903264
Schiffbeker Weg 27,22111,Hamburg,53.5427818,10.1013841
Rischenweg 11,37124,Rosdorf,51.50846663,9.91013525
Zittauer Straße 12,02681,Wilthen,51.0938014,14.3919782
Fritz-Meinhardt-Straße 5,01239,Dresden,50.99965663,13.79267783
Fuhlsbüttler Straße 334,22307,Hamburg,53.60083477,10.04143154
Max-Planck-Straße 3,27283,Verden,52.914112,9.254508
Niedervellmarer Straße 2,34127,Kassel,51.33871609,9.48984695
Uhlandstraße 5,01069,Dresden,51.03607,13.73995
Zum Großen Teich 1,04860,Torgau,51.55185651,12.97492024
Goldsternstraße 58,04329,Leipzig,51.3568011,12.4589289
Saatbruchstraße 55,45309,Essen,51.48604183,7.06238702
Bornaer Chaussee 2,04416,Markkleeberg,51.2798583,12.4306596
Dassower Straße 8 a,23923,Schönberg,53.8563234,10.9267711
Bramfelder Straße 103,22305,Hamburg,53.58952639,10.05150891
Spandauer Str. 112,14612,Falkensee,52.5605342,13.1282903
Desbrocksriede 2 a,30855,Langenhagen,52.43177981,9.67907577
Bahnhofstraße 39,06618,Naumburg (Saale),51.1636967,11.7998539
Hubertusstraße 68,45657,Recklinghausen,51.6052934,7.2102389
Goslarsche Straße 69A,38678,Clausthal-Zellerfeld,51.8219462,10.34037956
Rudolstädter Straße 31b,99444,Blankenhain,50.85485861,11.34323975
Ascherslebener Straße 1,06425,Alsleben (Saale),51.70054803,11.67071506
Marktstraße 10,29640,Schneverdingen,53.12026103,9.78252971
Runde Wiese 6,31137,Hildesheim,52.1604216,9.9035256
Wulfener Markt 350,46286,Dorsten,51.7259553,7.026836
Castroper Straße 239,45711,Datteln,51.6352809,7.3327578
Freiberger Straße 31,09569,Oederan,50.86507907,13.17710206
Uferstraße 18,32108,Bad Salzuflen,52.0686531,8.7529215
Brockeswalder Chaussee 52,27474,Cuxhaven,53.8604211,8.6745593
Ostenfelder Straße 5-7,59320,Ennigerloh,51.8392104,8.0297677
Muldestraße 55,08056,Zwickau,50.68734691,12.49792703
Ruschwitzstraße 56,18528,Bergen,54.408227,13.415607
Steindamm 9 b,25554,Wilster,53.9249456,9.3818689
Roßlauer Allee 4,06844,Dessau-Roßlau,51.8464969,12.2399496
Bäderstraße 3,18375,Born-Darß,54.39254,12.5409851
Oststraße 31-33,07407,Rudolstadt,50.7227374,11.3548269
Weender Landstraße 59,37075,Göttingen,51.54482228,9.93023501
Briller Straße 179,42105,Wuppertal,51.26333122,7.13139896
Bergenring 5,59494,Soest,51.58463709,8.09976311
Korthover Weg 57-59,45307,Essen,51.4672235,7.0884116
Steinfurter Straße 5,48268,Greven,52.1280753,7.5487251
Bautzener Straße 7A,02736,Oppach,51.06039788,14.49928562
Vopeliusstrasse 2-4,59964,Medebach,51.20078966,8.70974719
Hansastraße 41,44866,Bochum,51.4835143,7.1479226
Buchenkamp 94,22359,Hamburg,53.65263348,10.18717661
In den Rietbroken 39,49525,Lengerich,52.17846,7.847
Leher Landstraße 4H,27607,Langen,53.60728727,8.59532125
Nienburger Straße 49,29323,Wietze,52.65708029,9.82426014
Dorstener Straße 263-265,44653,Herne,51.53318323,7.18546693
Ukranenstraße 1,17358,Torgelow,53.6296348,14.0239899
Mukraner Straße 1B,18546,Saßnitz,54.51176623,13.61890221
Hördorfer Weg 45,27711,Osterholz-Scharmbeck,53.23280923,8.75316235
Lockhauser Straße 113,32052,Herford,52.0982938,8.6738711
Postliner Straße 15a,19357,Karstädt,53.1619689,11.7456809
Magdeburger Straße 238,39218,Schönebeck (Elbe),52.01678632,11.71261659
Zum Mönchguter Tor 1,18586,Sellin,54.36488,13.704705
Pasewalker Straße,17098,Friedland,53.672019,13.558931
Buddestraße 32,13507,Berlin,52.5918615,13.2867816
Augustenstraße 30a-32,24143,Kiel,54.31431626,10.14666
Platanenstraße 14,17033,Neubrandenburg,53.52327581,13.25693956
Remmighauser Straße 109 a,32760,Detmold,51.9148299,8.9118352
Braunschweiger Straße 36,38723,Seesen,51.89690169,10.18332164
Weseler Straße 10-12,48249,Dülmen,51.8645405,7.3610426
Winsener Landstraße 13-15,21423,Winsen (Luhe),53.33925197,10.20438155
Carlstraße 2,31073,Delligsen,51.94066468,9.81769036
Auf der Worth 9,27404,Zeven,53.29292093,9.28092986
Große Straße 26,22926,Ahrensburg,53.67447673,10.23883
Große Straße 38,27239,Twistringen,52.7996155,8.6363945
Natorpstraße 26-30,45139,Essen,51.45636372,7.02525358
Leibnizstraße 2,38228,Salzgitter,52.1451408,10.3152622
Kirchbergstrasse 6,35075,Gladenbach,50.7685643,8.5867855
Wilhelm-Nieswandt-Allee 198,45326,Essen,51.50283398,7.00956588
Im langen Roth 3,36266,Heringen (Werra),50.89205476,10.01457217
An der Landwehr 22,44795,Bochum,51.46653191,7.20411091
Berliner Straße 20 B,03238,Finsterwalde,51.63459003,13.706814
Kölner Straße 86c,57368,Lennestadt,51.1396747,8.0132392
Enderstraße 59,01277,Dresden,51.02945104,13.80339475
Hehlenbruchweg 4,29313,Hambühren,52.63439303,9.97526347
Bahnhofstraße 37,48607,Ochtrup,52.20504808,7.18776925
Drispenstedter Straße 4,31135,Hildesheim,52.1628922,9.964946
Hoeppnerstraße 3-13,12101,Berlin,52.4714707,13.384868
Hälverstraße 51,58579,Schalksmühle,51.23713053,7.52946805
Vosskamp 7,46282,Dorsten,51.6580159,6.9656837
Lange Maße 5,31171,Nordstemmen,52.15547944,9.79001308
Heidkoppel 2,24803,Erfde,54.31062813,9.32978735
Stuhrer Landstraße 142C,28816,Stuhr,53.0267686,8.7539545
Konradstraße 27,04315,Leipzig,51.34512582,12.40466283
Auf dem Schmaarkamp 15,21339,Lüneburg,53.26011806,10.41065901
Karl-Marx-Straße 231-235,12055,Berlin,52.46866254,13.44295398
Ehrenfried-Jopp-Straße 57,15517,Fürstenwalde,52.36616652,14.07102048
Konsul-Smidt-Straße 8,28217,Bremen,53.08770573,8.7808605
Zu den Emsauen 2,26871,Papenburg,53.0488065,7.3266872
Berliner Damm 1,25479,Ellerau,53.7502636,9.9171385
Bahrenfelder Kirchenweg 80,22761,Hamburg,53.5649739,9.908273
Borker Straße 86-90,44534,Lünen,51.62357849,7.51437379
Homberger Straße 15,35287,Amöneburg,50.76302488,8.92250092
Am Schwarzbach 8,45731,Waltrop,51.62343,7.42024
Schevemoorer Landstraße 14-20,28325,Bremen,53.07813555,8.94317427
Vietlipper Damm 1,18507,Grimmen,54.09893127,13.03813547
Leinestraße 49,37073,Göttingen,51.526488,9.924908
Marienthaler Straße 8,08060,Zwickau,50.720967,12.471478
Heinrich-Schütz-Straße 55,09130,Chemnitz,50.84087168,12.95141436
Wirusstraße 10,33775,Versmold,52.041016,8.1458944
Döbelner Straße 132,01129,Dresden,51.096925,13.719747
Moritz-Bacharach-Straße 7,59071,Hamm,51.6887707,7.8862627
Bodenburger Straße 9A,31162,Bad Salzdetfurth,52.0532873,10.0014672
Ichtershäuser Straße 47-49,99310,Arnstadt,50.84808899,10.95704151
Zibbeklebener Straße 7,39288,Burg (bei Magdeburg),52.2591627,11.8443663
Westfalenweg 8,33415,Verl,51.8797959,8.5044446
Müllerstraße 128,13349,Berlin,52.552406,13.3479928
Strubbergstraße 9,32312,Lübbecke,52.30373864,8.60394925
Hauptstraße 36,10317,Berlin,52.4965594,13.4868589
Mont-Cenis-Straße 351,44627,Herne,51.54132864,7.26582358
Nienburger Straße 38,49453,Rehden,52.60886322,8.48531221
Fuldatalstraße 14,34125,Kassel,51.3255602,9.518618
Ziolkowskistraße 18,02977,Hoyerswerda,51.42979191,14.2712236
Poggestraße 2A,17166,Teterow,53.77548536,12.56822673
Osterstraße 119,20259,Hamburg,53.57569304,9.9518721
Seestraße 63,23683,Scharbeutz,54.0219912,10.7510862
Erfurter Straße 46,99610,Sömmerda,51.14943365,11.11377393
Röddenauer Straße 20,35066,Frankenberg (Eder),51.0576445,8.7829583
Rummelsburger Straße 98,10319,Berlin,52.4993756,13.4949839
Hindenburgstraße 1,29386,Hankensbüttel,52.73175184,10.60311476
Celler Straße 81,38114,Braunschweig,52.2783636,10.506124
Milsper Straße 222,58256,Ennepetal,51.29844356,7.35689866
Lengenfelder Straße 41,08107,Kirchberg,50.61963941,12.51115625
Lemker Nordfeld 4,31608,Marklohe,52.66356463,9.1560974
Schlosserstr. 1,38229,Salzgitter,52.15693586,10.34834563
Hagener Straße 2,58256,Ennepetal,51.3064234,7.3901874
Menckesallee 24-26,22089,Hamburg,53.56860206,10.05894405
Schwedter Straße 83,10437,Berlin,52.54888566,13.40125497
Johann-Christian-von-Weiß-Straße 5,36448,Schweina,50.8102901,10.33860606
Hamburger Straße 23,22083,Hamburg,53.5748308,10.0338975
Wladimir-Sagorski-Straße 22,09122,Chemnitz,50.79577994,12.8887379
Travemünder Straße 1,01109,Dresden,51.1200567,13.7698921
Bardowicker Straße 10,30449,Hannover,52.3685,9.70416
Adolf-Emmelmann-Straße 5,30659,Hannover,52.4096706,9.8007603
Zum Bahnhof 4,45701,Herten,51.60154,7.08142
Gladenbacher Straße 38,35232,Dautphetal,50.85519871,8.54715321
Saganer Straße 9,14513,Teltow,52.39593853,13.23696137
Wöhrbergweg 5,31234,Edemissen,52.38565141,10.25676813
Auf der Schanze 31,31812,Bad Pyrmont,51.9909064,9.236314
In der Maate 6,48488,Emsbüren,52.3915123,7.2962488
Wollweberstr. 5a,17109,Demmin,53.90434998,13.03860863
Kreuzbergstraße 39,10965,Berlin,52.4904239,13.374999
Mittelstraße 76,22851,Norderstedt,53.68796058,10.03970096
Bleckeder Landstraße 26-28,21337,Lüneburg,53.25053026,10.42737484
Prinzenstraße 27,58332,Schwelm,51.2935368,7.2981926
Grothusstraße 21,45881,Gelsenkirchen,51.5215132,7.0718911
Friedrich-Ebert-Straße 80,48529,Nordhorn,52.422591,7.0686786
Korbacher Straße 5,34454,Bad Arolsen,51.3804422,8.9994061
Friedheim 8,24944,Flensburg,54.8143829,9.471229
Celler Straße 31,29690,Schwarmstedt,52.68079822,9.61885317
Hasenheide 108,10967,Berlin,52.4867896,13.42173
Karpendieck 3a,23970,Hornstorf,53.89198215,11.53077674
Bremer Straße 48,27283,Verden,52.93521141,9.23145477
Hallesche Straße 224 c,06295,Lutherstadt Eisleben,51.5116271,11.5703043
Am Buchholzplatz 8,38700,Braunlage,51.7203545,10.6155419
Dr.-Kurt-Schumacher-Straße 16,39576,Stendal,52.60188706,11.83669766
Hamannplatz 29A,48157,Münster,51.99441036,7.64814609
Stöckener Straße 12,27336,Rethem,52.7814422,9.3721881
Kieler Straße 577E,22525,Hamburg,53.59946312,9.91490017
Altenburger Straße 29,04603,Nobitz,50.9803074,12.4844029
Suhler Straße 36-42,98553,Schleusingen,50.5170419,10.755049
Prerower Platz 1,13051,Berlin,52.56433912,13.50652517
Hermesstraße 3,31275,Lehrte,52.3578624,10.1187033
Jahnstraße 28,31655,Stadthagen,52.31044524,9.19116901
Beethovenstraße 131,42655,Solingen,51.17534523,7.06015846
Windmühlenstraße 3,48429,Rheine,52.28640111,7.46348995
Tobringer 2,24226,Heikendorf,54.3767568,10.22158368
Prozessionsweg 43,33428,Harsewinkel,51.9700454,8.22110655
Am Schleusenkanal 28,21502,Geesthacht,53.43343,10.34138154
Brookgang 21,23743,Grömitz,54.1510835,10.96202661
Dille 57,48432,Rheine,52.2268497,7.4856169
Carl-Zeiss-Straße 4,38268,Lengede,52.19267051,10.32508408
Alte Bahnhofstraße 23,23769,Fehmarn,54.4788773,11.0725042
Bachstraße 9,31319,Sehnde,52.31630571,9.97198102
Heiligenhauser Straße 60,42549,Velbert,51.3328934,7.0224354
Rhauderwieke 9,26817,Rhauderfehn,53.13708325,7.56990305
Haßkampstraße 94,32257,Bünde,52.19186743,8.59293202
Am Dördelmannshof 6,45886,Gelsenkirchen,51.49237224,7.12602576
Berner Chaussee 16,22175,Hamburg,53.6181051,10.0825258
Alverdisser Straße 7,32683,Barntrup,51.9957639,9.1192072
Bahnhof 3,34537,Bad Wildungen,51.11937393,9.13695456
Borchener Straße 25,33098,Paderborn,51.7123838,8.7465679
Lemgoer Straße 2 a,32694,Dörentrup,52.0334942,9.0043834
Fritz-Reuter-Allee 184,12359,Berlin,52.437182,13.4459505
Schwartauer Landstraße 4 a,23554,Lübeck,53.8882319,10.6864303
Teichhütter Straße 2a,37529,Bad Grund,51.7831464,10.1964856
Bullbrücke 1,24235,Laboe,54.3966625,10.2332129
Hundemstraße 44,57368,Lennestadt,51.10269646,8.07133185
Birkenweg 2,15834,Rangsdorf,52.29510936,13.4587566
Anne-Frank-Straße 1,07407,Rudolstadt,50.6913461,11.32439585
Kiebitzkamp 3,29574,Ebstorf,53.0192516,10.42270443
Otto-Hahn-Straße 17,59557,Lippstadt,51.6567858,8.3307576
An der Post 2,59394,Nordkirchen,51.73767775,7.52908093
Willy-Brandt-Straße 10,21335,Lüneburg,53.2429927,10.4139873
Fritz-Josephs-Straße 4 a,59581,Warstein,51.48766472,8.26929325
Borngasse 8,36199,Rotenburg an der Fulda,50.9961396,9.7228911
Lange Straße 73-75,49733,Haren (Ems),52.7904328,7.2351588
Ostertorstraße 60,26670,Uplengen,53.30410222,7.74605225
Haßlinghauser Straße 21,58285,Gevelsberg,51.3178606,7.3285849
Fabrikstraße 46,48712,Gescher,51.95263049,7.01325507
Am Pferdemarkt 9 a,30853,Langenhagen,52.45288114,9.74095915
Bennstedter Straße 22,06126,Halle (Saale),51.4799737,11.8957135
Blankenauer Straße 1A,37688,Beverungen,51.67316268,9.37400405
Storkower Straße 176,10369,Berlin,52.52675213,13.45831551
Zum Schützenhof 51,59821,Arnsberg,51.3958369,8.0764357
Friedrichstraße 24,49610,Quakenbrück,52.67383387,7.94592191
Meißner Straße 30b,01723,Wilsdruff,51.0557018,13.5331959
Rodenbergstraße 23,44287,Dortmund,51.49466762,7.55201546
Boeler Straße 121,58097,Hagen,51.37792534,7.47359336
Kieler Straße 21,24783,Osterrönfeld,54.2952936,9.7079435
Wittgensteiner Straße 1A,35094,Lahntal,50.8597886,8.6966942
Hülscheider Straße 31,58579,Schalksmühle,51.2580144,7.5796727
Emil-von-Behring-Straße 4,28207,Bremen,53.0683313,8.8649388
Skurumer Straße 2a,03149,Forst (Lausitz),51.72807081,14.6296425
Bergiusstraße 8,48165,Münster,51.9041215,7.6534391
Wülfrather Straße 25,42553,Velbert,51.3120432,7.0672886
Ruhrau 37,45279,Essen,51.4417375,7.0875531
Bahnhofstraße 119,45770,Marl,51.6675726,7.1660588
Umländerwiek links 9-10,26871,Papenburg,53.07658495,7.44543673
Ruhrtalstraße 99,45239,Essen,51.38141683,6.98269604
Ekelser Straße 11,26624,Südbrookmerland,53.4737902,7.3934627
Lütgendortmunder Hellweg 206,44894,Bochum,51.49490414,7.33437547
Grebensteiner Straße 13,34376,Immenhausen,51.42899566,9.46837815
Heinrich-Heine-Straße 39,04178,Leipzig,51.354699,12.293471
Nienbergstraße 100,48431,Rheine,52.2716116,7.412324
Helene-Stöcker-Straße 1,23843,Bad Oldesloe,53.80713046,10.35212346
Oraniendamm 46,13469,Berlin,52.610309,13.3189568
Wildeshauser Straße 2,27243,Harpstedt,52.90582868,8.57856414
Am langen Rasen 9,99974,Unstruttal,51.23941959,10.45622631
Karl-Marx-Straße 92-98,12043,Berlin,52.4798096,13.4361357
Ahornstraße 46,19075,Pampow,53.56646681,11.36268729
Altstadtring 100,21423,Winsen (Luhe),53.36687093,10.20200997
Haupstraße 63,49626,Berge,52.6223927,7.7552935
Barnitzer Straße 1-7,23858,Reinfeld,53.82187007,10.50070404
Veldhausener Straße 59,49828,Neuenhaus,52.5025058,6.968198
Rosslauer Straße 29,39261,Zerbst,51.953932,12.1018773
Apenrader Straße 111,24939,Flensburg,54.8094595,9.4213745
Seeveplatz 1,21073,Hamburg,53.45779078,9.98711147
Greifswalder Straße 168,10409,Berlin,52.54122664,13.43753107
Clausewitzstraße 3,26125,Oldenburg,53.1630095,8.2449948
Am Lückefeld 88,15831,Mahlow,52.35847747,13.43440217
Straße der Jugend 19,39517,Tangerhütte,52.4303634,11.7970734
Am Kaufland 3,03222,Lübbenau,51.86676124,13.93822426
Meinersdorfer Straße 6,09390,Gornsdorf,50.7185725,12.8844266
Körner Hellweg 20,44143,Dortmund,51.51552349,7.5002049
Zepziger Weg 4,06406,Bernburg (Saale),51.78088152,11.75322026
Wulfshofstraße 5,44149,Dortmund,51.4958667,7.37472259
Krumme Kamp 1-11,26676,Barßel,53.16020874,7.75539483
Soltauer Straße 85-91,21244,Buchholz in der Nordheide,53.3148533,9.8800942
Rathenaustraße 9,33102,Paderborn,51.72308909,8.73864379
Wiesenstraße 5,49401,Damme,52.5187862,8.1960213
Georg-Hermann-Allee 145,14469,Potsdam,52.42515381,13.05352671
Nienburger Straße 36,31515,Wunstorf,52.4300504,9.464286
Brunsbütteler Damm 201-203,13581,Berlin,52.53290376,13.16713078
Friedrich-Ebert-Allee 21,22869,Schenefeld,53.6090752,9.8428917
Kollenbeyer Weg 2e,06217,Merseburg,51.36053831,12.02024917
Fürstenbergstraße 15,49716,Meppen,52.6819091,7.2984797
Straße der Jugend 173,15806,Zossen,52.1959925,13.4586033
Industriestraße 1,24848,Kropp,54.41220057,9.52118381
Wedenkamp 9 b,25335,Elmshorn,53.7519328,9.64864181
Hermannstraße 72,12049,Berlin,52.4740782,13.4274582
Bergstraße 1,15562,Rüdersdorf bei Berlin,52.46878249,13.79564351
Johannes-Büll-Weg 1a,22399,Hamburg,53.65460601,10.06062828
Zschopauer Straße 244,09126,Chemnitz,50.8131482,12.9570142
Oberwiesenthaler Weg 6,09456,Annaberg-Buchholz,50.56493905,13.01146041
Hagener Straße 148,44225,Dortmund,51.46991025,7.46079691
Benninghofer Straße 99,44269,Dortmund,51.47975661,7.50558
Eickener Straße 48,45525,Hattingen,51.39812853,7.17104921
Straße der Einheit 15,06198,Salzatal,51.5261553,11.8255108
Bismarckstraße 17,12169,Berlin,52.456176,13.3378246
Hans-Christophersen-Allee 2,24860,Böklund,54.6010787,9.5849533
Windmühlenstraße 31,04107,Leipzig,51.33260173,12.37872659
Ladestraße 34,59514,Welver,51.6157363,7.9648364
Bahnhofstraße 18,09661,Hainichen,50.9824521,13.1081322
Stadtring 8,03042,Cottbus,51.76545069,14.35774024
Oldentruper Straße 266,33719,Bielefeld,52.011555,8.597949
Zum Mineralbad 1,31867,Lauenau,52.26728,9.369278
Rendsburger Straße 119,24340,Eckernförde,54.45235373,9.83544719
Raiffeisenstraße 1,27777,Ganderkesee,53.03628096,8.54243202
Westring 64,32051,Herford,52.1185841,8.6547892
Mehlbydiek 8,24376,Kappeln,54.66820965,9.92413786
Stieberstraße 53,02625,Bautzen,51.17106981,14.43627308
Dünzebacher Straße 2c,37269,Eschwege,51.18349219,10.06374886
Berliner Platz 21,22045,Hamburg,53.58460211,10.14383536
Kolberger Straße 2,23909,Ratzeburg,53.69078565,10.7987613
Poststraße 30A,22946,Trittau,53.60741898,10.41173685
Friedrichstraße 15,49809,Lingen (Ems),52.5214926,7.3313861
Kleiwellenfeld 27,59229,Ahlen,51.73884448,7.88066499
Gebhartstraße 4,23936,Grevesmühlen,53.85771757,11.18806589
Luisenglück 30,44225,Dortmund,51.47776847,7.43407388
Rünther Straße 151,59192,Bergkamen,51.6491062,7.6703157
Kunaustraße 1,22393,Hamburg,53.65286564,10.11069854
Neuenhofer Straße 99,42657,Solingen,51.15754678,7.07111384
Borgwardstraße 1,21365,Adendorf,53.29222619,10.42698679
Köhlfleet-Hauptdeich 7,21129,Hamburg,53.53346303,9.88122907
Glashütter Straße 87,01277,Dresden,51.04094253,13.79914492
Pohlweg 110,33100,Paderborn,51.7031174,8.7695962
Dannenberger Straße 30,29439,Lüchow,52.96719969,11.14620563
Ostenfelder Str. 70,25813,Husum,54.46947701,9.08977188
In der Mark 90,32278,Kirchlengern,52.2073625,8.6528116
Sprötzer Weg 31a,21244,Buchholz in der Nordheide,53.3215509,9.8465626
Otto-Hahn-Straße 18,46325,Borken,51.85555878,6.87060541
Nevinghoff 12-16,48147,Münster,51.98276956,7.6343896
Hans-Sachs-Allee 13a,18057,Rostock,54.0892511,12.0973243
Oberrege 12b,26931,Elsfleth,53.23370256,8.45387046
Kistemakerstraße 2-8,48529,Nordhorn,52.4440874,7.0607567
Rutenbecker Weg 3,42327,Wuppertal,51.2378743,7.098228
Bekassinenau 86,22147,Hamburg,53.61591126,10.13637932
August-Wegener-Straße 13,31061,Alfeld (Leine),51.9930557,9.8450278
Zum Schacht 1,45731,Waltrop,51.60719798,7.3925466
Aktienstraße 42,45359,Essen,51.4585558,6.925804
An der Windmühle 2,59469,Ense,51.5009224,7.9602307
Rudolf-Tarnow-Straße 77,19230,Hagenow,53.42835217,11.19943251
Mindener Straße 24,32361,Preußisch Oldendorf,52.30435908,8.49810017
Neuer Kamp 31,20359,Hamburg,53.5561432,9.9667489
Klotzbahn 5,42105,Wuppertal,51.25997845,7.1456151
Georg-Schlesinger-Straße 3,03042,Cottbus,51.75835414,14.34649943
Jenastieg 16,38124,Braunschweig,52.23021753,10.53479266
Lippstädter Straße 1-3,59602,Rüthen,51.49451871,8.43426593
Weserstrandstraße 17,28779,Bremen,53.18034773,8.56980044
Rosenstraße 1,23626,Ratekau,53.94792856,10.73266267
Esplanade 9,13187,Berlin,52.5573426,13.4118618
Nüttermoorer Straße 4,26789,Leer (Ostfriesland),53.25987665,7.45407979
Leipziger Straße 104,04425,Taucha,51.37563068,12.48153293
Eichenallee 1 b,21220,Seevetal,53.3915361,10.03789602
In der Werraaue 1,37281,Wanfried,51.18748714,10.16706973
Holter Straße 137-147,33758,Schloß Holte-Stukenbrock,51.90287317,8.63698633
Vor Brakens Höhe 2,34289,Zierenberg,51.3670582,9.2906975
Baarstraße 47-49,58636,Iserlohn,51.382479,7.6950561
Müggelheimer Damm 244/252,12559,Berlin,52.4138246,13.65696634
An der Bohlenbrücke 4,37213,Witzenhausen,51.34665694,9.85709889
Wulmstorfer Wiesen 4,21629,Neu Wulmstorf,53.4749103,9.7859943
Logestraße 34,27616,Beverstedt,53.43319296,8.82381087
Am Pfingstberg 25,13465,Berlin,52.626743,13.301741
Münsterstraße 32,49176,Hilter,52.13754688,8.13806099
Raimundstraße 1-3,01157,Dresden,51.05709968,13.68783022
Ludwigsburger Straße 9,04209,Leipzig,51.31956292,12.2915568
Alsterdorfer Markt 4,22297,Hamburg,53.6122438,10.0243722
Wesenberger Chaussee 2,17252,Mirow,53.2741879,12.8227193
Künsebecker Weg 1,33790,Halle (Westfalen),52.0528452,8.3561184
Fridtjof-Nansen-Straße 27,17493,Greifswald,54.09187875,13.42733669
Chemnitzer Straße 1,09385,Lugau,50.74487331,12.74780519
An der Mühle 9,35466,Rabenau,50.67915323,8.84887883
Am Markt 3,14641,Wustermark,52.54613202,12.93939603
Parchimer Straße 64,19089,Crivitz,53.56955182,11.66056735
Bohmsiel 12,27572,Bremerhaven,53.49218811,8.59600278
Ludwig-Erhard-Straße 2,37434,Gieboldehausen,51.6028841,10.2055805
Eidelstedter Weg 44,20255,Hamburg,53.5823383,9.9528338
Revaler Straße 33,10245,Berlin,52.5056683,13.4600184
Tecklenburger Straße 2,49549,Ladbergen,52.1373736,7.73745077
Möskenweg 24B,17454,Zinnowitz,54.07135979,13.90977271
Weberade 21-23,21031,Hamburg,53.50865384,10.18457731
Bunte Straße 30,48496,Hopsten,52.379516,7.6025617
Preußerstraße 1,24105,Kiel,54.3293103,10.1336699
Rahlmühler Straße 50,31848,Bad Münder,52.1966491,9.44867968
Raiffeisenstraße 17,26603,Aurich,53.45820422,7.49882583
Poppauer Straße 1,38486,Klötze,52.628815,11.1567322
Schwarzer Weg 9,19348,Perleberg,53.0641508,11.8379699
Reicker Straße 97,01237,Dresden,51.0148167,13.7894085
Hamfhofsweg 59,28357,Bremen,53.12883338,8.89656399
Höntroper Straße 67,44869,Bochum,51.45923682,7.15756625
Laascher Straße 30b,19306,Neustadt-Glewe,53.3705668,11.5943417
Friedrich-Ebert-Straße 6,17213,Malchow,53.4794845,12.4231213
Rendsburger Landstraße 240,24113,Kiel,54.30021759,10.08784713
Hamburger Straße 71,38518,Gifhorn,52.4991926,10.5444204
Stolberger Straße 25 A,06493,Harzgerode,51.63560837,11.13020278
Karl-Marx-Straße 36,12529,Schönefeld,52.40890507,13.44112427
Rheiner Straße 110,49809,Lingen (Ems),52.5073238,7.3231325
Fuchsbreite 19-23,49186,Bad Iburg,52.1511192,8.036846
Hindenburgstraße 13,28717,Bremen,53.1691322,8.698246
Am Stellwerk 13,18233,Neubukow,54.0362187,11.6822527
Badstraße 4,13357,Berlin,52.54976276,13.38975947
Friedrich-Ebert-Straße 106,45659,Recklinghausen,51.591411,7.18021034
Freiburger Straße 80,21682,Stade,53.61130789,9.48082457
Werftstraße 161,26382,Wilhelmshaven,53.5282781,8.0987263
Rechterfelder Straße 30,49429,Visbek,52.8358416,8.3176428
Friedrich-Engels-Allee 257,42285,Wuppertal,51.2642213,7.1787875
Johann-Ehrenfried-Wagner-Straße 9,09496,Marienberg,50.64767846,13.15752853
Mühlenloog 1,26529,Upgant-Schott,53.5199512,7.2768238
Steeler Straße 466,45138,Essen,51.44521241,7.05698811
Müllers Kamp 21-23,26629,Großefehn,53.40507413,7.60328548
Montebruchstraße 19,45219,Essen,51.3574804,6.93498424
Brandenburgische Straße 1,14974,Ludwigsfelde,52.31096043,13.24382557
Wilhelm-Suder-Straße 1,39356,Weferlingen,52.30910733,11.05069144
Krendelstraße 4,30916,Isernhagen,52.4249535,9.84293979
Neumünsterstraße 6 c,23812,Wahlstedt,53.9544741,10.2101991
Weberstraße 7,27753,Delmenhorst,53.05553484,8.63064814
Am Laxtener Esch 7,49811,Lingen,52.51571,7.3465
Bruchweg 5,32699,Extertal,52.0708064,9.11669434
Markscheiderweg 1a,17036,Neubrandenburg,53.5534466,13.3079369
Karl-Liebknecht-Straße 81,03046,Cottbus,51.7567755,14.3130175
Posthausen 1,28870,Ottersberg,53.0612013,9.1656296
Zum Haintor 3,34587,Felsberg,51.1350167,9.4274993
Neumünsterstraße 49B,24598,Boostedt,54.01321929,10.01518171
Bahnhofstraße 38,01968,Senftenberg,51.523194,14.002865
Kirchröder Straße 91-92,30625,Hannover,52.3721734,9.78883684
Reiherweg 6,26203,Wardenburg,53.0560019,8.2024175
Mühlenstraße 12,24582,Bordesholm,54.17728588,10.04705975
Industriestraße 4-6,98544,Zella-Mehlis,50.6439704,10.6893281
Eisenbahnstraße 20,45134,Essen,51.4274215,7.0442123
Berliner Chaussee 7,16556,Hohen Neuendorf,52.7053738,13.2686542
Mozartstraße 14-16,30173,Hannover,52.35689914,9.75218919
Wulf-Hefe-Straße 2,59457,Werl,51.54735799,7.91776649
Leipziger Platz 12,10117,Berlin,52.51023343,13.37958235
Clara-Zetkin-Straße 9,36433,Bad Salzungen,50.8102009,10.2218295
Hufenweg 24,24211,Preetz,54.23594839,10.27532605
Dünner Straße 4,32257,Bünde,52.207753,8.5939833
Paschberg 22,21698,Harsefeld,53.45589971,9.51291894
Zirkusweg 4-6,20359,Hamburg,53.54778544,9.96585613
Zur Stadtgärtnerei 1,30657,Hannover,52.4253153,9.7815818
Filderstädter Straße 5 a,04758,Oschatz,51.30070313,13.09290387
Theodor-Storm-Str. 20,31139,Hildesheim,52.13370889,9.94338338
Dorfstraße 22,13059,Berlin,52.5752885,13.5195713
Göttinger Straße 23,37120,Bovenden,51.58966755,9.92756015
Lößnitzer Straße 20-22,08280,Aue-Bad Schlema,50.59460633,12.70157388
Alfred-Delp-Weg 5,37085,Göttingen,51.52167028,9.9627029
Osdorfer Landstraße 1a,22607,Hamburg,53.56931724,9.87757165
Hastenbecker Weg 46,31785,Hameln,52.10134624,9.38214555
Bäderstraße 3,17406,Usedom,53.8753374,13.9190354
Bahnhofsstraße 44,17489,Greifswald,54.09241683,13.37289702
Am Busbahnhof 20,24784,Westerrönfeld,54.275232,9.656038
Förster-Funke-Allee 104,14532,Kleinmachnow,52.40436971,13.21964113
Flensburger Chaussee 52,25813,Husum,54.4891272,9.0787149
Bredde 36,42275,Wuppertal,51.2750248,7.2094021
Castroper Straße 206,44791,Bochum,51.49099082,7.24332241
Westermarkt 2,25884,Viöl,54.5703979,9.17248374
An der Ihle 5C,27721,Ritterhude,53.182365,8.7106873
Heyrothsberger Straße 62,39175,Biederitz,52.14595967,11.72226512
Beelener Straße 86,33442,Herzebrock-Clarholz,51.90299944,8.1921407
Kattenturmer Heerstraße 326,28277,Bremen,53.0320411,8.8109642
Industriestraße 5,48231,Warendorf,51.9217335,7.963771
Arthur-Scheunert-Allee 69,14558,Nuthetal,52.35172728,13.1022746
Selauer Straße 91a,06667,Weißenfels,51.1984728,11.9952905
Buschgrundstraße 33,45894,Gelsenkirchen,51.5851443,7.0354259
Nordring 11 b,04924,Bad Liebenwerda,51.5173088,13.3936064
Hermann-Müller-Straße 2,38315,Schladen,52.01898957,10.54963585
Schlagbaumer Straße 126,42653,Solingen,51.18950279,7.07794999
Findorffstraße 39,27726,Worpswede,53.22534265,8.92586195
Waldenburger Straße 33,09116,Chemnitz,50.831209,12.883287
Otto-Franke-Straße 98,12489,Berlin,52.4324574,13.5472562
Schützenstraße 144-146,44147,Dortmund,51.5269357,7.4517972
Döhrenacker 3,27628,Hagen im Bremischen,53.35837621,8.65708638
Riga-Ring 11,59494,Soest,51.56796614,8.12982428
Hannoversche Straße 90,49084,Osnabrück,52.25784186,8.08466612
Rogätzer Straße 27,39106,Magdeburg,52.1485441,11.6558534
Ottenser Hauptstraße 10,22765,Hamburg,53.5527025,9.9335889
Bahnhofstraße 26,31655,Stadthagen,52.32755884,9.19842229
Hauptstraße 58,22869,Schenefeld,53.60157363,9.82211953
Vor dem Nebraer Tor 5,06268,Querfurt,51.3722724,11.60441951
Am Eschenhof 5 b,17034,Neubrandenburg,53.5848892,13.2730022
Beelitzer Straße 15-19,14943,Luckenwalde,52.0919914,13.1725462
Erdkampsweg 134,22335,Hamburg,53.63507872,10.01468741
Schwerter Straße 192,58099,Hagen,51.3997183,7.4771391
Fabrikstraße 14a,01662,Meißen,51.164506,13.489593
Rundestraße 6,30161,Hannover,52.3804213,9.7373629
Grambeker Weg 95-97,23879,Mölln,53.6141163,10.6780846
Stimbergstraße 138,45739,Oer-Erkenschwick,51.6427027,7.2591363
Goldberger Straße 65,18273,Güstrow,53.7739237,12.1684696
Hammesberger Straße 24,42855,Remscheid,51.1902752,7.1738189
Warslebener Straße 6,39393,Hötensleben,52.1150689,11.0235688
Burgstraße 4,31600,Uchte,52.4995495,8.9057577
Merseburger Straße 25,04435,Schkeuditz,51.3928588,12.2109641
Kasseler Straße 42,98574,Schmalkalden,50.7182642,10.430436
Offenburger Allee 15,04600,Altenburg,50.9985415,12.4403704
Gutenbergstraße 4,24558,Henstedt-Ulzburg,53.80494668,9.97938531
Hans-Bredow-Straße 19,28307,Bremen,53.0511005,8.9575757
Hultschiner Damm 140-142,12623,Berlin,52.48724797,13.60550802
Josefstraße 3,36088,Hünfeld,50.67196026,9.76836288
Grindelberg 27-31,20144,Hamburg,53.5745177,9.97702328
Lindemannallee 21,30173,Hannover,52.35880806,9.77174855
Wilhelm-Liebknecht-Str. 2,01257,Dresden,51.01185011,13.81023589
Theodor-Heuss-Ring 136,24143,Kiel,54.300921,10.142318
Am Sportplatz 4,34439,Willebadessen,51.62506,9.023
Barmbeker Straße 17-25,22303,Hamburg,53.58450207,10.01843088
Radegaster Straße 61,06780,Zörbig,51.63629989,12.11408476
Ziegelei 3,34233,Fuldatal,51.3440195,9.5180766
Dieckmannstraße 114,48161,Münster,51.96668984,7.56357623
Jembker Straße 1,38448,Wolfsburg,52.4463932,10.7809765
Alfred-Bentz-Straße 2,30966,Hemmingen,52.3144807,9.7211143
Am Müggelpark 41-45,15537,Gosen-Neu Zittau,52.3958736,13.7208996
Am Handelspark 9,18209,Bad Doberan,54.10877657,11.9206496
Penzliner Straße 47,17235,Neustrelitz,53.3765694,13.0517493
Lutterstraße 1,37431,Bad Lauterberg im Harz,51.62780855,10.46036777
Roedernallee 15-16,13407,Berlin,52.58085995,13.34707882
Wendessener Straße 11A,38300,Wolfenbüttel,52.1483571,10.5576829
Im Feldhof 10,34260,Kaufungen,51.28370779,9.60050587
Nikolausdorfer Straße 3,49681,Garrel,52.96162516,8.0280049
Osnabrücker Landstraße 1,33335,Gütersloh,51.9112841,8.4250032
An der Stör 2 a,25548,Kellinghusen,53.94780377,9.71448097
Klöcknerstraße 3,59368,Werne,51.6641114,7.6453159
Oßmaritzer Straße 1A,07745,Jena,50.89232456,11.58403154
Wewersches Bruch 100,33106,Paderborn,51.688284,8.681097
Erdmannshainer Straße 58,04683,Naunhof,51.28284987,12.57876659
Wegedornstraße 29,12524,Berlin,52.4240713,13.5267775
Köpenicker Landstraße 296,12437,Berlin,52.4650469,13.4959974
Hundertwasserallee 3,26389,Wilhelmshaven,53.52911825,8.06961917
Carl-Zeiß-Straße 4,38644,Goslar,51.93032676,10.41107219
Itzehoer Straße 4-6,24613,Aukrug,54.08260527,9.78114341
Hindenburgstraße 29,27442,Gnarrenburg,53.3772289,9.00388776
Bahnhofstraße 42 a,57392,Schmallenberg,51.1579216,8.2918765
Kanalstraße 8,12357,Berlin,52.4308822,13.4958631
Altenderner Straße 18,44329,Dortmund,51.56845392,7.52526893
Straße der Deutschen Einheit 2-4,09217,Burgstädt,50.91854618,12.80947207
Im Hagenkamp 1,48282,Emsdetten,52.17495211,7.5365905
Postweg 16,04849,Bad Düben,51.59931664,12.59195854
Bremer Weg 199,29223,Celle,52.6363871,10.0518316
Hauptstraße 64,16348,Wandlitz,52.6860022,13.4404112
Ophauser Straße 36,58089,Hagen,51.3858291,7.43537851
Auf dem Königslande 21,22041,Hamburg,53.58124417,10.07581475
Mauerstraße 11,34117,Kassel,51.31646145,9.49649272
Heinrich-von-Stephan-Straße 2c,36251,Bad Hersfeld,50.8639983,9.7084453
Zinnhütte 13,21255,Tostedt,53.27000983,9.73384953
Am Buschberg 50,42549,Velbert,51.34613882,7.02824646
Alter Schützenplatz 1,49696,Molbergen,52.85707482,7.92833006
Welzower Straße 26A,03048,Cottbus,51.74030601,14.32378026
Fabrikstraße 3,01683,Nossen,51.0627316,13.2978116
Verdener Landstraße 39A,31582,Nienburg,52.65187483,9.21668548
Tulpenweg 4,26639,Wiesmoor,53.41896717,7.73901356
Hubertstraße 20,45139,Essen,51.46553329,7.04799847
Stader Straße 6,21781,Cadenberge,53.7701991,9.0582899
Adam-Riese-Straße 2,38518,Gifhorn,52.4684537,10.5755448
Langer Peter 27C,25524,Itzehoe,53.93218729,9.52788813
Dülmener Straße 28,59348,Lüdinghausen,51.76489848,7.3894638
Ringstraße 32,32130,Enger,52.137317,8.5536263
Oerlinghauser Straße 109,32758,Detmold,51.94568552,8.7839291
Engerstraße 61,33824,Werther,52.07961891,8.42355137
Haart 224,24539,Neumünster,54.0602547,10.009888
Emmerstedter Strasse 12,38350,Helmstedt,52.24134036,10.99521275
Rathausplatz 10,45549,Sprockhövel,51.33571841,7.2849066
Hauptstraße 35A,27729,Hambergen,53.3076704,8.8391804
Neue Grottkauer Straße 23,12619,Berlin,52.52917368,13.59562611
Bahnhofstraße 20A,25764,Wesselburen,54.20515915,8.93091883
Dessauerstraße 61,45886,Gelsenkirchen,51.5044527,7.1123745
Teutoburger Straße 2,49201,Dissen am Teutoburger Wald,52.11683738,8.20653109
Glücksburger Straße 1,24376,Kappeln,54.65886798,9.94890768
Platanenstraße 4,09356,St. Egidien,50.77358851,12.62460834
Hans-Jürgen-Klinker-Straße 1,24837,Schleswig,54.5318592,9.5752343
Heider Straße 2B,25761,Büsum,54.1383811,8.8739591
Erfurter Straße 12a,99706,Sondershausen,51.36816812,10.84944125
Petersburger Wall 9,49074,Osnabrück,52.26749502,8.0550899
Langener Landstraße 160,27580,Bremerhaven,53.5804548,8.5986717
Marktstraße 1-3,25560,Schenefeld,54.0468622,9.48401389
Am Rosenhügel 40-42,42553,Velbert,51.30479817,7.10519284
Zwischen den Wegen 4,58239,Schwerte,51.45633328,7.6129289
Straße am See 1,04207,Leipzig,51.3068176,12.2596073
Germendorfer Allee 20,16515,Oranienburg,52.75198358,13.20076665
Holzhäuser Straße 108,04299,Leipzig,51.3193619,12.424729
Weststraße 9,49324,Melle,52.2058021,8.3354077
Weidendamm 2,14482,Potsdam,52.38537292,13.10628742
Mühlenberg 18 a,24857,Fahrdorf,54.49941143,9.59754349
Mollerstraße 20,49356,Diepholz,52.6081862,8.36663665
Kaiserstraße 33,42327,Wuppertal,51.2328346,7.0723302
Bahnhofstraße 7,45549,Sprockhövel,51.36582981,7.24382539
In der Meineworth 25,30938,Großburgwedel,52.4911565,9.84413151
An der Salzrinne 2,39418,Staßfurt,51.85144476,11.5979082
Im Ohl 16B,59757,Arnsberg,51.46017378,7.95121181
Meppener Straße 22,49744,Geeste,52.5921675,7.2358197
Nienhagener Straße 3,29339,Wathlingen,52.5401128,10.1447075
Auricher Straße 14b,26556,Westerholt,53.5863961,7.4592207
Handelsstraße 4-8,04356,Leipzig,51.40175398,12.39879615
Dahlhauser Straße 177-179,45279,Essen,51.43739554,7.10619992
Friedrichsruher Weg 4,24161,Altenholz,54.3846564,10.1388724
Grot Steenbusch 35,24145,Kiel,54.28258195,10.13322663
Nachtigallenstraße 87,49324,Melle,52.191754,8.3528343
Alte Schulstrasse 2,57223,Kreuztal,50.93509949,8.00496831
Bahnhofstraße 1A,26506,Norden,53.5902438,7.2159272
Berliner Straße 83-87,21502,Geesthacht,53.43539888,10.38285794
Friedrich-Ebert-Ring 184,48429,Rheine,52.2951385,7.4505067
Am Fischereihafen 3,18069,Rostock,54.1097995,12.0852149
Marcel-Paul-Straße 48-50,99427,Weimar,50.99439139,11.31554328
Bamenohler Straße 26,57413,Finnentrop,51.163205,7.9881125
Hannoversche Straße 13,34266,Niestetal,51.315842,9.5408841
Guteborner Allee 3,08393,Meerane,50.83949199,12.44638563
Steinweg 66,32657,Lemgo,52.02366386,8.88848374
Wandsbeker Marktstraße 103-107,22041,Hamburg,53.57264206,10.06807792
Schulstraße 21,18551,Sagard,54.5279868,13.5468169
Oldesloer Straße 50,22457,Hamburg,53.63443521,9.91480604
Harpstedter Straße 34c,27793,Wildeshausen,52.9015197,8.4499119
Katernberger Straße 48-50,45327,Essen,51.49814404,7.04895639
Koburger Straße 181,04416,Markkleeberg,51.2732285,12.3563476
Am Fuchsbau 4,15345,Petershagen-Eggersdorf,52.53152777,13.80583923
Birkunger Straße 27,37327,Leinefelde-Worbis,51.38382345,10.33061966
Wöhlerstraße 48,30163,Hannover,52.3984177,9.7502274
Posener Straße 91,26388,Wilhelmshaven,53.5740059,8.0847258
Detmolder Straße 221-225,33175,Bad Lippspringe,51.788915,8.8248658
Große Parower Straße 54,18435,Stralsund,54.3282129,13.0793515
Kreisstraße 92,59379,Selm,51.6860521,7.46738014
Meiersfeld 18,49419,Wagenfeld,52.553823,8.5857219
Vahlder Weg 1A,27383,Scheeßel,53.1689346,9.4877885
Kölner Straße 90,58509,Lüdenscheid,51.21514656,7.61574956
Orkotten 11,48291,Telgte,51.97943149,7.78195341
Heckershäuser Straße 27,34292,Ahnatal,51.3682045,9.3982969
Industriestraße 19,48485,Neuenkirchen,52.24208213,7.37020155
Berliner Straße 106,02943,Weißwasser,51.508407,14.619778
Poggensiek 2,22941,Delingsdorf,53.69988665,10.24724633
Nordhusumer Straße 90,25813,Husum,54.482564,9.039765
Bessemerstraße 85,44793,Bochum,51.4743218,7.20977778
Höseler Straße 65,42579,Heiligenhaus,51.324982,6.9437666
Königstraße 58,48599,Gronau,52.217114,7.009159
Kamener Straße 11,59425,Unna,51.5544314,7.6849654
Friedrich-Ebert-Straße 294-296,58566,Kierspe,51.1315733,7.5918501
Provinzialstraße 417,44388,Dortmund,51.52177859,7.32567575
Rottwerndorfer Straße 41,01796,Pirna,50.94935631,13.94296571
Hedwigschachtstraße 1,09376,Oelsnitz,50.727912,12.7004783
Donnerstraße 228-240,45359,Essen,51.4881355,6.9311009
Görlitzer Straße 1,34379,Calden,51.4116035,9.3939218
Striepenweg 37,21147,Hamburg,53.47339,9.877083
Bienroder Weg 53,38108,Braunschweig,52.30218801,10.54003125
Osseweg 87,26789,Leer,53.219527,7.476027
Industriestraße 4,48369,Saerbeck,52.1747233,7.6272161
Grünberger Str. 82,36304,Alsfeld,50.7418449,9.2569638
Rübenstraße 60,42289,Wuppertal,51.2692909,7.2294027
Weberstraße 15,04668,Grimma,51.23429625,12.72575267
Arneburger Straße 30,39576,Stendal,52.61636737,11.86799051
Dessauer Allee 53,06766,Bitterfeld-Wolfen,51.6822891,12.2620539
Hauptstraße 34-38,26892,Dörpen,52.96590615,7.33091948
Huttenstraße 41-44,10553,Berlin,52.5280277,13.3177036
Bahnhofstraße 16,98587,Steinbach-Hallenberg,50.69385482,10.56073872
Süderstraße 18,27374,Visselhövede,52.9835166,9.58024746
Bahnhofsplatz 24,42499,Hückeswagen,51.151735,7.342399
Dresdener Straße 1,04916,Herzberg (Elster),51.69594235,13.25005759
Krupunder Heide 2,25462,Rellingen,53.63330022,9.87090171
Tamara-Danz-Straße 11,10243,Berlin,52.5060818,13.4465683
Landgrabenpark 2,16303,Schwedt,53.0676567,14.27269138
Martinistraße 93,49080,Osnabrück,52.27037105,8.02853879
Traberallee 11,17034,Neubrandenburg,53.56905366,13.2622771
Nadorster Straße 150,26123,Oldenburg,53.1570211,8.221301
Bernburger Straße 18,06420,Könnern,51.67676653,11.77116311
Schweigerstraße 7,38300,Wolfenbüttel,52.1681913,10.5741046
Herscheider Landstraße 91,58515,Lüdenscheid,51.2067899,7.6556667
Am Untertor 8,35083,Wetter (Hessen),50.9047208,8.7234169
Potsdamer Straße 177,14469,Potsdam,52.4150186,13.0234544
Bürgermeister-Höppner-Straße 1,23749,Grube,54.2243164,11.03516879
Elbestraße 95,27570,Bremerhaven,53.54193482,8.59018194
Salzbergener Straße 72-86,48431,Rheine,52.2866594,7.4302502
Am Stinnberg 11 a,21279,Hollenstedt,53.3663086,9.714888
Ebereschenstraße 5-9,07747,Jena,50.88402833,11.61749638
Zunftstraße 17,06847,Dessau-Roßlau,51.81747789,12.21678506
Westfalenstraße 218-224,48165,Münster,51.89964,7.63998
Am Hospital 21,34560,Fritzlar,51.13400334,9.27830729
Hauptstraße 45,15741,Bestsensee,52.2421471,13.632333
Husumer Str. 79,25821,Bredstedt,54.6114927,8.9785751
Bornheide 55 k-p,22549,Hamburg,53.58782022,9.85028599
Hüttenweg 5,48249,Dülmen,51.8253691,7.2718818
Am Allerbeek 2,21266,Jesteburg,53.3067438,9.9448099
Kamener Straße 148,59077,Hamm,51.6455279,7.7548226
Friedrich-Ebert-Straße 143,48153,Münster,51.944284,7.6308389
Eberswalder Straße 6,16775,Löwenberger Land,52.89874242,13.15793582
Hauptstraße 10a,27446,Selsingen,53.3763778,9.2161037
Am Markt 2,24594,Hohenwestedt,54.0899831,9.6499063
Wilhelm-Külz-Straße 40,17033,Neubrandenburg,53.5505258,13.2725452
Bahnhofstraße 12,18181,Graal-Müritz,54.249896,12.248082
Hainholzer Damm 9A,25337,Elmshorn,53.7452513,9.6722359
Georg-Schwarz-Straße 92,04179,Leipzig,51.3459692,12.31843418
Berliner Weg 7,16348,Wandlitz,52.74317129,13.45490828
Sachsenwaldstraße 20,21465,Reinbek,53.52790984,10.25089189
Madamenweg 48,38118,Braunschweig,52.26002557,10.49370514
Müggelheimer Straße 36,12555,Berlin,52.4421806,13.585442
Oldenburger Landstraße 32,26215,Wiefelstede,53.26061222,8.11364237
Pfarrer-Bergmannshoff-Platz 4,48431,Rheine,52.2706532,7.4312715
Bahnhofsplatz 5,18292,Krakow am See,53.6524652,12.2664053
Im Gewerbegebiet 22a,26842,Ostrhauderfehn,53.1393797,7.6065529
Am Bahnhof 6,59368,Werne,51.6698167,7.6252272
Emmerichstraße 33/35,02826,Görlitz,51.1462497,14.98726737
Hollerstraße 74,24782,Büdelsdorf,54.31454828,9.67578637
Tornescher Hof 1-5,25436,Tornesch,53.69657448,9.71379328
Neufelder Weg 3-5,27619,Schiffdorf,53.5825748,8.6260174
Berliner Freiheit 14,28327,Bremen,53.0801096,8.8936434
Verlängerte Waldowallee 44,10318,Berlin,52.4767791,13.5369035
Lohauserholzstraße 4b,59067,Hamm,51.6641703,7.7862134
Eilper Straße 69,58095,Hagen,51.3470583,7.4916527
Großbeerenstraße 215-219,14480,Potsdam,52.38177616,13.12530783
Sülldorfer Landstraße 158-162,22589,Hamburg,53.579855,9.8020856
Triptiser Straße 12a,07806,Neustadt an der Orla,50.73584725,11.76123972
Erler Straße 28,46286,Dorsten,51.75201581,6.93275393
Birkenweg 2,01936,Königsbrück,51.25698812,13.89052716
Schöllinger Feld 1,58300,Wetter (Ruhr),51.3595792,7.3758626
Herforder Straße 93-95,32105,Bad Salzuflen,52.0884596,8.7313507
Am Rotberg 50,99848,Wutha-Farnroda,50.95115776,10.3974738
An der Au 14,36304,Alsfeld,50.75380652,9.27796591
Willy-Brandt-Platz 7,04109,Leipzig,51.34538685,12.37979942
Werftstraße 29,24939,Flensburg,54.7997812,9.4256205
Poststraße 32,29308,Winsen (Aller),52.6830379,9.910762
Fuistingstraße 66,48683,Ahaus,52.0854532,7.0031283
Lütke Berg 3,48341,Altenberge,52.04084676,7.46939188
Lüneburger Straße 39,21073,Hamburg,53.45998138,9.98217849
Werrestraße 15,32549,Bad Oeynhausen,52.21756245,8.80395327
Marzahner Chaussee 218,12681,Berlin,52.5250653,13.534886
Schürmannstraße 43b,45136,Essen,51.43286338,7.03071675
Lutherstraße 15,09366,Stollberg,50.71004773,12.77771477
Kreuzstraße 6-8,49762,Lathen,52.8617256,7.3209829
Ihrener Straße 7-9,26810,Westoverledingen,53.16593292,7.45553566
